[{"id":"alt-de-juclar","url":"https://www.feec.cat/activitats/100-cims/cim/alt-de-juclar/","image":"https://www.feec.cat/wp-content/uploads/2019/04/Alt-de-Juclar-scaled.jpg","name":"Alt de Juclar","height":2588,"region":"Andorra","essencial":false,"latitude":"42.611704","longitude":"1.709588"},{"id":"alt-de-la-capa","url":"https://www.feec.cat/activitats/100-cims/cim/alt-de-la-capa/","image":"https://www.feec.cat/wp-content/uploads/2022/06/189-Alt-de-la-Capa.jpg","name":"Alt de la Capa","height":2573,"region":"Andorra","essencial":false,"latitude":"42.562973","longitude":"1.454193"},{"id":"alt-del-griu","url":"https://www.feec.cat/activitats/100-cims/cim/alt-del-griu/","image":"https://www.feec.cat/wp-content/uploads/2019/04/Alt-del-Griu_2-scaled.jpg","name":"Alt del Griu","height":2874,"region":"Andorra","essencial":false,"latitude":"42.525140","longitude":"1.651239"},{"id":"balandrau","url":"https://www.feec.cat/activitats/100-cims/cim/balandrau/","image":"https://www.feec.cat/wp-content/uploads/2019/04/Balandrau.jpg","name":"Balandrau","height":2585,"region":"Ripollès","essencial":true,"latitude":"42.3701065555","longitude":"2.21956587983"},{"id":"bassegoda","url":"https://www.feec.cat/activitats/100-cims/cim/bassegoda/","image":"https://www.feec.cat/wp-content/uploads/2019/04/bassegoda_Oscar.jpg","name":"Bassegoda","height":1373,"region":"Alt Empordà, Garrotxa","essencial":true,"latitude":"42.3127998427","longitude":"2.63072820832"},{"id":"bastiments","url":"https://www.feec.cat/activitats/100-cims/cim/bastiments/","image":"https://www.feec.cat/wp-content/uploads/2019/04/Bastiments-scaled.jpg","name":"Bastiments","height":2881,"region":"Conflent, Ripollès","essencial":true,"latitude":"42.4262224049","longitude":"2.2328618189"},{"id":"bellmunt","url":"https://www.feec.cat/activitats/100-cims/cim/bellmunt/","image":"https://www.feec.cat/wp-content/uploads/2019/04/Bellmunt_2-scaled.jpg","name":"Bellmunt","height":1248,"region":"Osona","essencial":true,"latitude":"42.1015354717","longitude":"2.29375027555"},{"id":"besiberri-nord","url":"https://www.feec.cat/activitats/100-cims/cim/besiberri-nord/","image":"https://www.feec.cat/wp-content/uploads/2019/04/Besiberri-Nord-scaled.jpg","name":"Besiberri Nord","height":3008,"region":"Alta Ribagorça, Val d'Aran","essencial":false,"latitude":"42.6052569802","longitude":"0.826303718072"},{"id":"besiberri-del-sud","url":"https://www.feec.cat/activitats/100-cims/cim/besiberri-del-sud/","image":"https://www.feec.cat/wp-content/uploads/2019/07/32-Besiberri-Sud.jpg","name":"Besiberri Sud","height":3023,"region":"Alta Ribagorça","essencial":false,"latitude":"42.593789","longitude":"0.825995"},{"id":"bony-de-la-pica-o-pica-dos","url":"https://www.feec.cat/activitats/100-cims/cim/bony-de-la-pica-o-pica-dos/","image":"https://www.feec.cat/wp-content/uploads/2019/04/Bony-de-la-Pica-scaled.jpg","name":"Bony de la Pica o Pica d’Os","height":2405,"region":"Alt Urgell, Andorra","essencial":true,"latitude":"42.504804","longitude":"1.460396"},{"id":"cabrera","url":"https://www.feec.cat/activitats/100-cims/cim/cabrera/","image":"https://www.feec.cat/wp-content/uploads/2019/04/Cabrera-scaled.jpg","name":"Cabrera","height":1308,"region":"Garrotxa, Osona","essencial":true,"latitude":"42.0759961774","longitude":"2.40727154853"},{"id":"cambra-dase","url":"https://www.feec.cat/activitats/100-cims/cim/cambra-dase/","image":"https://www.feec.cat/wp-content/uploads/2019/04/Cambra-dAse_2.jpg","name":"Cambra d’Ase","height":2750,"region":"Cerdanya Nord","essencial":true,"latitude":"42.450876","longitude":"2.13126125"},{"id":"campirme","url":"https://www.feec.cat/activitats/100-cims/cim/campirme/","image":"https://www.feec.cat/wp-content/uploads/2019/04/Campirme.jpg","name":"Campirme","height":2633,"region":"Pallars Sobirà","essencial":true,"latitude":"42.6595207314","longitude":"1.19362547646"},{"id":"canigo","url":"https://www.feec.cat/activitats/100-cims/cim/canigo/","image":"https://www.feec.cat/wp-content/uploads/2019/04/Canigo-1-scaled.jpg","name":"Canigó","height":2784,"region":"Conflent","essencial":true,"latitude":"42.518901928","longitude":"2.45655964191"},{"id":"cap-de-boumort","url":"https://www.feec.cat/activitats/100-cims/cim/cap-de-boumort/","image":"https://www.feec.cat/wp-content/uploads/2019/04/Cap-de-Boumort.jpg","name":"Cap de Boumort","height":2077,"region":"Pallars Jussà","essencial":true,"latitude":"42.2350097134","longitude":"1.13468387277"},{"id":"cap-de-broate","url":"https://www.feec.cat/activitats/100-cims/cim/cap-de-broate/","image":"https://www.feec.cat/wp-content/uploads/2022/06/broate.jpeg","name":"Cap de Broate","height":2741,"region":"Pallars Sobirà","essencial":false,"latitude":"42.692368","longitude":"1.364376"},{"id":"cap-de-carreu","url":"https://www.feec.cat/activitats/100-cims/cim/cap-de-carreu/","image":"https://www.feec.cat/wp-content/uploads/2022/06/106-cap-de-carreu_optimized-scaled.jpg","name":"Cap de Carreu","height":1749,"region":"Pallars Jussà","essencial":false,"latitude":"42.193570","longitude":"1.123586"},{"id":"cap-de-gelada","url":"https://www.feec.cat/activitats/100-cims/cim/cap-de-gelada/","image":"https://www.feec.cat/wp-content/uploads/2022/06/cap-de-gelada-des-de-tossal-roies-cardet_optimized-scaled.jpg","name":"Cap de Gelada","height":2449,"region":"Alta Ribagorça","essencial":false,"latitude":"42.521551","longitude":"0.765144"},{"id":"cap-de-la-boixassa","url":"https://www.feec.cat/activitats/100-cims/cim/cap-de-la-boixassa/","image":"https://www.feec.cat/wp-content/uploads/2022/06/76-Cap-de-la-Boixassa.jpg","name":"Cap de la Boixassa","height":1820,"region":"Berguedà","essencial":false,"latitude":"42.288559","longitude":"1.798617"},{"id":"cap-de-la-gallina-pelada","url":"https://www.feec.cat/activitats/100-cims/cim/cap-de-la-gallina-pelada/","image":"https://www.feec.cat/wp-content/uploads/2019/04/Cap-de-la-Gallina-Pelada_2-scaled.jpg","name":"Cap de la Gallina Pelada","height":2321,"region":"Berguedà","essencial":true,"latitude":"42.1894343677","longitude":"1.73803778545"},{"id":"cap-de-pla-redon","url":"https://www.feec.cat/activitats/100-cims/cim/cap-de-pla-redon/","image":"https://www.feec.cat/wp-content/uploads/2022/06/19-Cap-del-Pla-Redon.jpg","name":"Cap de Pla Redon","height":1846,"region":"Alt Urgell","essencial":false,"latitude":"42.275525","longitude":"1.267020"},{"id":"cap-del-verd","url":"https://www.feec.cat/activitats/100-cims/cim/cap-del-verd/","image":"https://www.feec.cat/wp-content/uploads/2019/04/Cap-del-Verd.jpg","name":"Cap del Verd","height":2284,"region":"Alt Urgell, Berguedà, Solsonès","essencial":true,"latitude":"42.2008147325","longitude":"1.61370601396"},{"id":"carlit","url":"https://www.feec.cat/activitats/100-cims/cim/carlit/","image":"https://www.feec.cat/wp-content/uploads/2019/04/Carlit.jpg","name":"Carlit","height":2921,"region":"Cerdanya Nord","essencial":true,"latitude":"42.569861","longitude":"1.932099"},{"id":"caro","url":"https://www.feec.cat/activitats/100-cims/cim/caro/","image":"https://www.feec.cat/wp-content/uploads/2019/04/Caro-des-de-lEspina-scaled.jpg","name":"Caro","height":1441,"region":"Baix Ebre","essencial":true,"latitude":"40.8031301137","longitude":"0.343121075505"},{"id":"casamanya-nord","url":"https://www.feec.cat/activitats/100-cims/cim/casamanya-nord/","image":"https://www.feec.cat/wp-content/uploads/2019/04/Casamanya-Nord_2.jpg","name":"Casamanya Nord","height":2750,"region":"Andorra","essencial":true,"latitude":"42.5873416545","longitude":"1.5703040881"},{"id":"castell-de-besora","url":"https://www.feec.cat/activitats/100-cims/cim/castell-de-besora/","image":"https://www.feec.cat/wp-content/uploads/2022/06/108-Castell-de-Besora.jpg","name":"Castell de Besora","height":1030,"region":"Osona","essencial":false,"latitude":"42.123941","longitude":"2.251122"},{"id":"castell-de-bocs","url":"https://www.feec.cat/activitats/100-cims/cim/castell-de-bocs/","image":"https://www.feec.cat/wp-content/uploads/2022/06/castell-de-bocs_optimized-scaled.jpg","name":"Castell de Bocs","height":662,"region":"Vallès Occidental","essencial":false,"latitude":"41.642372","longitude":"1.941816"},{"id":"castell-de-boixadors","url":"https://www.feec.cat/activitats/100-cims/cim/castell-de-boixadors/","image":"https://www.feec.cat/wp-content/uploads/2019/04/Castell-de-Boixadors.jpg","name":"Castell de Boixadors","height":848,"region":"Anoia","essencial":false,"latitude":"41.7706425868","longitude":"1.57477558985"},{"id":"castell-de-burriac","url":"https://www.feec.cat/activitats/100-cims/cim/castell-de-burriac/","image":"https://www.feec.cat/wp-content/uploads/2019/04/Castell-de-Burriac.jpg","name":"Castell de Burriac","height":392,"region":"Maresme","essencial":true,"latitude":"41.5374582022","longitude":"2.38733933206"},{"id":"castell-de-llivia","url":"https://www.feec.cat/activitats/100-cims/cim/castell-de-llivia/","image":"https://www.feec.cat/wp-content/uploads/2022/06/77-castell-de-llivia_optimized-scaled.jpg","name":"Castell de Llívia","height":1358,"region":"Cerdanya","essencial":false,"latitude":"42.467845","longitude":"1.985909"},{"id":"castell-de-lluca","url":"https://www.feec.cat/activitats/100-cims/cim/castell-de-lluca/","image":"https://www.feec.cat/wp-content/uploads/2022/06/111_optimized.-turo-castell-de-lluca-scaled.jpg","name":"Castell de Lluçà","height":895,"region":"Lluçanès ","essencial":false,"latitude":"42.054577","longitude":"2.040229"},{"id":"castell-de-milany","url":"https://www.feec.cat/activitats/100-cims/cim/castell-de-milany/","image":"https://www.feec.cat/wp-content/uploads/2019/04/Castell-de-Milany-scaled.jpg","name":"Castell de Milany","height":1529,"region":"Osona, Ripollès","essencial":true,"latitude":"42.1655542733","longitude":"2.28960053077"},{"id":"castell-de-montgri","url":"https://www.feec.cat/activitats/100-cims/cim/castell-de-montgri/","image":"https://www.feec.cat/wp-content/uploads/2019/04/Castell-de-Montgri_2-scaled.jpg","name":"Castell de Montgrí","height":303,"region":"Baix Empordà","essencial":true,"latitude":"42.0521068681","longitude":"3.13164949925"},{"id":"castell-de-sant-miquel","url":"https://www.feec.cat/activitats/100-cims/cim/castell-de-sant-miquel/","image":"https://www.feec.cat/wp-content/uploads/2019/04/Castell-de-Sant-Miquel.jpg","name":"Castell de Sant Miquel","height":385,"region":"Gironès","essencial":true,"latitude":"42.0068953001","longitude":"2.86209176566"},{"id":"castell-saverdera","url":"https://www.feec.cat/activitats/100-cims/cim/castell-saverdera/","image":"https://www.feec.cat/wp-content/uploads/2019/04/Castell-Saverdera.jpg","name":"Castell Saverdera","height":682,"region":"Alt Empordà","essencial":true,"latitude":"42.3199721871","longitude":"3.16782473062"},{"id":"castellsapera","url":"https://www.feec.cat/activitats/100-cims/cim/castellsapera/","image":"https://www.feec.cat/wp-content/uploads/2019/04/Castellsapera-scaled.jpg","name":"Castellsapera","height":939,"region":"Vallès Occidental","essencial":true,"latitude":"41.6445253816","longitude":"1.97087419147"},{"id":"catinell","url":"https://www.feec.cat/activitats/100-cims/cim/catinell/","image":"https://www.feec.cat/wp-content/uploads/2022/06/56-Catinell.jpg","name":"Catinell","height":1350,"region":"Baix Ebre, Montsià","essencial":false,"latitude":"40.758730","longitude":"0.289653"},{"id":"cavall-bernat-de-llaberia","url":"https://www.feec.cat/activitats/100-cims/cim/cavall-bernat-de-llaberia/","image":"https://www.feec.cat/wp-content/uploads/2019/04/Cavall-Bernat-de-Llaberia_2-scaled.jpg","name":"Cavall Bernat de Llaberia","height":840,"region":"Baix Camp","essencial":true,"latitude":"41.0840507023","longitude":"0.875157009664"},{"id":"clapi-vell","url":"https://www.feec.cat/activitats/100-cims/cim/clapi-vell/","image":"https://www.feec.cat/wp-content/uploads/2019/07/10-Clapi-Vell.jpg","name":"Clapí Vell","height":703,"region":"Alt Penedès","essencial":false,"latitude":"41.388047","longitude":"1.542632"},{"id":"codol-del-castellar","url":"https://www.feec.cat/activitats/100-cims/cim/codol-del-castellar/","image":"https://www.feec.cat/wp-content/uploads/2022/06/92-Codol-del-Castellar.jpg","name":"Còdol del Castellar","height":832,"region":"Moianès","essencial":false,"latitude":"41.740942","longitude":"2.059581"},{"id":"cogullo-destela","url":"https://www.feec.cat/activitats/100-cims/cim/cogullo-destela/","image":"https://www.feec.cat/wp-content/uploads/2019/04/Cogulló-dEstela_2-scaled.jpg","name":"Cogulló d’Estela","height":1870,"region":"Berguedà","essencial":true,"latitude":"42.1216063043","longitude":"1.78708523867"},{"id":"cogullo-de-cal-torre","url":"https://www.feec.cat/activitats/100-cims/cim/cogullo-de-cal-torre/","image":"https://www.feec.cat/wp-content/uploads/2019/04/Cogullo-de-Cal-Torre.jpg","name":"Cogulló de Cal Torre","height":881,"region":"Bages","essencial":false,"latitude":"41.6874716091","longitude":"1.68642459544"},{"id":"cogullo-de-turp","url":"https://www.feec.cat/activitats/100-cims/cim/cogullo-de-turp/","image":"https://www.feec.cat/wp-content/uploads/2019/04/Cogulló-de-Turp-scaled.jpg","name":"Cogulló de Turp","height":1621,"region":"Alt Urgell","essencial":true,"latitude":"42.1511470485","longitude":"1.34727840172"},{"id":"coll-de-pins","url":"https://www.feec.cat/activitats/100-cims/cim/coll-de-pins/","image":"https://www.feec.cat/wp-content/uploads/2019/04/Coll-de-Pins-scaled.jpg","name":"Coll de Pins","height":500,"region":"Ribera d'Ebre","essencial":false,"latitude":"40.9874138161","longitude":"0.593574351565"},{"id":"collbaix","url":"https://www.feec.cat/activitats/100-cims/cim/collbaix/","image":"https://www.feec.cat/wp-content/uploads/2019/04/Collbaix.jpg","name":"Collbaix","height":543,"region":"Bages","essencial":true,"latitude":"41.740870427","longitude":"1.78096524985"},{"id":"comabona","url":"https://www.feec.cat/activitats/100-cims/cim/comabona/","image":"https://www.feec.cat/wp-content/uploads/2019/04/Comabona-scaled.jpg","name":"Comabona","height":2548,"region":"Berguedà, Cerdanya","essencial":true,"latitude":"42.2836928","longitude":"1.726288"},{"id":"comanegra","url":"https://www.feec.cat/activitats/100-cims/cim/comanegra/","image":"https://www.feec.cat/wp-content/uploads/2019/04/Comanegra.jpg","name":"Comanegra","height":1557,"region":"Garrotxa, Vallespir","essencial":true,"latitude":"42.3333072525","longitude":"2.52776092867"},{"id":"comapedrosa","url":"https://www.feec.cat/activitats/100-cims/cim/comapedrosa/","image":"https://www.feec.cat/wp-content/uploads/2019/04/Comapedrosa_2-scaled.jpg","name":"Comapedrosa","height":2942,"region":"Andorra","essencial":true,"latitude":"42.5918057015","longitude":"1.44365450486"},{"id":"costa-pubilla-o-pla-de-pujalts","url":"https://www.feec.cat/activitats/100-cims/cim/costa-pubilla-o-pla-de-pujalts/","image":"https://www.feec.cat/wp-content/uploads/2019/04/Costa-Pubilla-scaled.jpg","name":"Costa Pubilla o Pla de Pujalts","height":2056,"region":"Ripollès","essencial":true,"latitude":"42.2857169362","longitude":"2.08066391016"},{"id":"costabona","url":"https://www.feec.cat/activitats/100-cims/cim/costabona/","image":"https://www.feec.cat/wp-content/uploads/2019/04/Costabona-scaled.jpg","name":"Costabona","height":2465,"region":"Ripollès, Vallespir","essencial":true,"latitude":"42.4168972338","longitude":"2.34391990901"},{"id":"creu-de-gurb","url":"https://www.feec.cat/activitats/100-cims/cim/creu-de-gurb/","image":"https://www.feec.cat/wp-content/uploads/2019/04/Creu-de-Gurb.jpg","name":"Creu de Gurb","height":842,"region":"Osona","essencial":true,"latitude":"41.9520875639","longitude":"2.21046092543"},{"id":"xaquera-o-creu-de-santos","url":"https://www.feec.cat/activitats/100-cims/cim/xaquera-o-creu-de-santos/","image":"https://www.feec.cat/wp-content/uploads/2019/04/Xàquera-Creu-de-Santos.jpg","name":"Creu de Santos","height":942,"region":"Baix Ebre, Ribera d'Ebre","essencial":true,"latitude":"40.9406887493","longitude":"0.586018857692"},{"id":"el-bres","url":"https://www.feec.cat/activitats/100-cims/cim/el-bres/","image":"https://www.feec.cat/wp-content/uploads/2022/06/47-el-bres_optimized-scaled.jpg","name":"el Bres","height":525,"region":"Baix Camp","essencial":false,"latitude":"41.153937","longitude":"0.977411"},{"id":"el-cadinell","url":"https://www.feec.cat/activitats/100-cims/cim/el-cadinell/","image":"https://www.feec.cat/wp-content/uploads/2019/04/El-Cadinell_2-scaled.jpg","name":"El Cadinell","height":2113,"region":"Alt Urgell","essencial":false,"latitude":"42.2643934199","longitude":"1.59782471728"},{"id":"puig-castellar-serra-dancosa","url":"https://www.feec.cat/activitats/100-cims/cim/puig-castellar-serra-dancosa/","image":"https://www.feec.cat/wp-content/uploads/2019/04/Puig-Castellar-Ancosa-scaled.jpg","name":"El Castellar (serra d’Ancosa)","height":943,"region":"Anoia","essencial":false,"latitude":"41.4483303855","longitude":"1.51647754872"},{"id":"el-castellot","url":"https://www.feec.cat/activitats/100-cims/cim/el-castellot/","image":"https://www.feec.cat/wp-content/uploads/2019/04/El-Castellot_2-scaled.jpg","name":"El Castellot","height":465,"region":"Alt Penedès","essencial":true,"latitude":"41.3375872509","longitude":"1.57862965411"},{"id":"el-codo","url":"https://www.feec.cat/activitats/100-cims/cim/el-codo/","image":"https://www.feec.cat/wp-content/uploads/2022/06/115-el-codo_optimized-scaled.jpg","name":"el Codó","height":1327,"region":"Pallars Jussà","essencial":false,"latitude":"42.301519","longitude":"0.914596"},{"id":"el-cogul","url":"https://www.feec.cat/activitats/100-cims/cim/el-cogul/","image":"https://www.feec.cat/wp-content/uploads/2019/04/El-Cogul.jpg","name":"El Cogul","height":1526,"region":"Solsonès","essencial":true,"latitude":"42.1100346816","longitude":"1.6394532915"},{"id":"el-cogullo","url":"https://www.feec.cat/activitats/100-cims/cim/el-cogullo/","image":"https://www.feec.cat/wp-content/uploads/2022/06/96_optimized.-el-cogullo-noguera-scaled.jpg","name":"el Cogulló","height":1002,"region":"Noguera","essencial":false,"latitude":"41.998183","longitude":"1.039182"},{"id":"el-cogullo-de-cabra","url":"https://www.feec.cat/activitats/100-cims/cim/el-cogullo-de-cabra/","image":"https://www.feec.cat/wp-content/uploads/2019/04/El-Cogulló-de-Cabra-scaled.jpg","name":"El Cogulló de Cabra","height":881,"region":"Alt Camp","essencial":true,"latitude":"41.4290355033","longitude":"1.30575794888"},{"id":"el-coscollet","url":"https://www.feec.cat/activitats/100-cims/cim/el-coscollet/","image":"https://www.feec.cat/wp-content/uploads/2019/04/El-Coscollet_2.jpg","name":"El Coscollet","height":1610,"region":"Alt Urgell","essencial":true,"latitude":"42.1141439558","longitude":"1.2675128268"},{"id":"el-far","url":"https://www.feec.cat/activitats/100-cims/cim/el-far/","image":"https://www.feec.cat/wp-content/uploads/2019/04/El-Far.jpg","name":"El Far","height":1124,"region":"Selva","essencial":false,"latitude":"42.0208408193","longitude":"2.5366387097"},{"id":"el-garrofi","url":"https://www.feec.cat/activitats/100-cims/cim/el-garrofi/","image":"https://www.feec.cat/wp-content/uploads/2022/06/el-garrofi_optimized-scaled.jpg","name":"el Garrofí","height":617,"region":"Bages","essencial":false,"latitude":"41.861259","longitude":"1.938720"},{"id":"el-mont","url":"https://www.feec.cat/activitats/100-cims/cim/el-mont/","image":"https://www.feec.cat/wp-content/uploads/2019/04/El-Mont_2.jpg","name":"El Mont","height":1125,"region":"Alt Empordà","essencial":true,"latitude":"42.2588459605","longitude":"2.70629661635"},{"id":"el-montsianell","url":"https://www.feec.cat/activitats/100-cims/cim/el-montsianell/","image":"https://www.feec.cat/wp-content/uploads/2019/04/El-Montsianell.jpg","name":"El Montsianell","height":293,"region":"Montsià","essencial":false,"latitude":"40.6830235057","longitude":"0.555600233824"},{"id":"el-negrell","url":"https://www.feec.cat/activitats/100-cims/cim/el-negrell/","image":"https://www.feec.cat/wp-content/uploads/2019/04/El-Negrell.jpg","name":"El Negrell","height":1345,"region":"Montsià","essencial":false,"latitude":"40.7341570377","longitude":"0.227329062732"},{"id":"el-punxo","url":"https://www.feec.cat/activitats/100-cims/cim/el-punxo/","image":"https://www.feec.cat/wp-content/uploads/2022/06/el-punxo_optimized.jpg","name":"el Punxó","height":2581,"region":"Cerdanya Nord","essencial":false,"latitude":"42.530582","longitude":"1.854635"},{"id":"el-sui","url":"https://www.feec.cat/activitats/100-cims/cim/el-sui/","image":"https://www.feec.cat/wp-content/uploads/2022/06/el-sui_optimized-scaled.jpg","name":"el Sui","height":1319,"region":"Vallès Oriental","essencial":false,"latitude":"41.749114","longitude":"2.345652"},{"id":"el-torn","url":"https://www.feec.cat/activitats/100-cims/cim/el-torn/","image":"https://www.feec.cat/wp-content/uploads/2019/04/El-Torn.jpg","name":"El Torn","height":152,"region":"Baix Camp","essencial":false,"latitude":"40.9657461416","longitude":"0.883354759262"},{"id":"el-tossal-gros","url":"https://www.feec.cat/activitats/100-cims/cim/el-tossal-gros/","image":"https://www.feec.cat/wp-content/uploads/2019/04/Tossal-Gros-scaled.jpg","name":"El Tossal Gros","height":867,"region":"Alt Camp, Conca de Barberà","essencial":true,"latitude":"41.3753563472","longitude":"1.23938718304"},{"id":"els-angels","url":"https://www.feec.cat/activitats/100-cims/cim/els-angels/","image":"https://www.feec.cat/wp-content/uploads/2019/04/Els-Àngels_2-scaled.jpg","name":"Els Àngels","height":483,"region":"Gironès","essencial":true,"latitude":"41.9848033724","longitude":"2.90862814766"},{"id":"els-bessons","url":"https://www.feec.cat/activitats/100-cims/cim/els-bessons/","image":"https://www.feec.cat/wp-content/uploads/2019/04/Els-Bessons.jpg","name":"Els Bessons","height":593,"region":"Garrigues","essencial":true,"latitude":"41.4665607398","longitude":"0.847132154148"},{"id":"els-munts","url":"https://www.feec.cat/activitats/100-cims/cim/els-munts/","image":"https://www.feec.cat/wp-content/uploads/2019/04/Els-Munts-scaled.jpg","name":"Els Munts","height":1057,"region":"Osona","essencial":false,"latitude":"42.0787263425","longitude":"2.15328121534"},{"id":"els-quatre-mollons","url":"https://www.feec.cat/activitats/100-cims/cim/els-quatre-mollons/","image":"https://www.feec.cat/wp-content/uploads/2022/06/94-els-Quatre-Mollons.jpg","name":"els Quatre Mollons","height":433,"region":"Montsià","essencial":false,"latitude":"40.643029","longitude":"0.561878"},{"id":"els-tossals","url":"https://www.feec.cat/activitats/100-cims/cim/els-tossals/","image":"https://www.feec.cat/wp-content/uploads/2019/04/Els-Tossals-scaled.jpg","name":"Els Tossals","height":1525,"region":"Berguedà","essencial":false,"latitude":"42.0892489918","longitude":"1.72742659445"},{"id":"forca-real","url":"https://www.feec.cat/activitats/100-cims/cim/forca-real/","image":"https://www.feec.cat/wp-content/uploads/2019/04/Força-Real_2-scaled.jpg","name":"Força Real","height":507,"region":"Rosselló","essencial":false,"latitude":"42.7269198717","longitude":"2.70022626173"},{"id":"gallinova","url":"https://www.feec.cat/activitats/100-cims/cim/gallinova/","image":"https://www.feec.cat/wp-content/uploads/2019/04/Gallinova_3-scaled.jpg","name":"Gallinova","height":1687,"region":"Pallars Jussà","essencial":false,"latitude":"42.1847230594","longitude":"1.07808782096"},{"id":"gra-de-fajol","url":"https://www.feec.cat/activitats/100-cims/cim/gra-de-fajol/","image":"https://www.feec.cat/wp-content/uploads/2022/06/gra-de-fajol_optimized.jpg","name":"Gra de Fajol","height":2714,"region":"Ripollès","essencial":false,"latitude":"42.415480","longitude":"2.247755"},{"id":"gran-encantat","url":"https://www.feec.cat/activitats/100-cims/cim/gran-encantat/","image":"https://www.feec.cat/wp-content/uploads/2019/04/Gran-Encantat.jpg","name":"Gran Encantat","height":2749,"region":"Pallars Sobirà","essencial":false,"latitude":"42.5684086401","longitude":"1.01483782051"},{"id":"gran-pic-del-pesso","url":"https://www.feec.cat/activitats/100-cims/cim/gran-pic-del-pesso/","image":"https://www.feec.cat/wp-content/uploads/2019/04/Gran-Pic-del-Pessó-scaled.jpg","name":"Gran Pic del Pessó","height":2894,"region":"Alta Ribagorça, Pallars Jussà","essencial":false,"latitude":"42.5094903448","longitude":"0.924102242387"},{"id":"gran-tuc-de-colomers","url":"https://www.feec.cat/activitats/100-cims/cim/gran-tuc-de-colomers/","image":"https://www.feec.cat/wp-content/uploads/2019/04/Gran-Tuc-de-Colomers-scaled.jpg","name":"Gran Tuc de Colomers","height":2933,"region":"Alta Ribagorça, Val d'Aran","essencial":true,"latitude":"42.589389693","longitude":"0.93780698965"},{"id":"grony-de-miralles","url":"https://www.feec.cat/activitats/100-cims/cim/grony-de-miralles/","image":"https://www.feec.cat/wp-content/uploads/2019/04/Grony-de-Miralles-scaled.jpg","name":"Grony de Miralles","height":866,"region":"Anoia","essencial":false,"latitude":"41.5167025621","longitude":"1.49218341096"},{"id":"lalbarda-castellana","url":"https://www.feec.cat/activitats/100-cims/cim/lalbarda-castellana/","image":"https://www.feec.cat/wp-content/uploads/2019/07/64-Albarda-Castellana.jpg","name":"L’Albarda Castellana","height":1178,"region":"Baix Llobregat","essencial":false,"latitude":"41.601020","longitude":"1.813379"},{"id":"laliga","url":"https://www.feec.cat/activitats/100-cims/cim/laliga/","image":"https://www.feec.cat/wp-content/uploads/2022/06/151-lAliga.jpg","name":"l’Àliga (Mola del Broi)","height":383,"region":"Ribera d'Ebre, Terra Alta","essencial":false,"latitude":"41.027710","longitude":"0.557909"},{"id":"largimon","url":"https://www.feec.cat/activitats/100-cims/cim/largimon/","image":"https://www.feec.cat/wp-content/uploads/2019/04/LArgimon.jpg","name":"L’Argimon","height":465,"region":"Selva","essencial":false,"latitude":"41.8306607507","longitude":"2.63598108836"},{"id":"laut","url":"https://www.feec.cat/activitats/100-cims/cim/laut/","image":"https://www.feec.cat/wp-content/uploads/2022/06/aut.jpg","name":"l’Aüt","height":2532,"region":"Alta Ribagorça","essencial":false,"latitude":"42.541340","longitude":"0.808755"},{"id":"lavedoga-dadons","url":"https://www.feec.cat/activitats/100-cims/cim/lavedoga-dadons/","image":"https://www.feec.cat/wp-content/uploads/2022/06/33-lAvedoga-dAdons.jpg","name":"l’Avedoga d’Adons","height":1839,"region":"Alta Ribagorça, Pallars Jussà","essencial":false,"latitude":"42.314116","longitude":"0.838204"},{"id":"lenclusa","url":"https://www.feec.cat/activitats/100-cims/cim/lenclusa/","image":"https://www.feec.cat/wp-content/uploads/2019/04/LEnclusa_2-scaled.jpg","name":"L’'´Enclusa","height":867,"region":"Osona","essencial":false,"latitude":"41.8707878226","longitude":"2.32093889931"},{"id":"lespina","url":"https://www.feec.cat/activitats/100-cims/cim/lespina/","image":"https://www.feec.cat/wp-content/uploads/2019/04/LEspina.jpg","name":"L’Espina","height":1181,"region":"Baix Ebre, Terra Alta","essencial":false,"latitude":"40.8793690775","longitude":"0.360899310112"},{"id":"loratori","url":"https://www.feec.cat/activitats/100-cims/cim/loratori/","image":"https://www.feec.cat/wp-content/uploads/2022/06/15-lOratori.jpg","name":"l’Oratori","height":1757,"region":"Alt Urgell","essencial":false,"latitude":"42.201373","longitude":"1.218321"},{"id":"la-carabassa","url":"https://www.feec.cat/activitats/100-cims/cim/la-carabassa/","image":"https://www.feec.cat/wp-content/uploads/2019/04/La-Carabassa_3-scaled.jpg","name":"La Carabassa","height":2740,"region":"Cerdanya","essencial":true,"latitude":"42.4579797147","longitude":"1.72717359885"},{"id":"la-cogula","url":"https://www.feec.cat/activitats/100-cims/cim/la-cogula/","image":"https://www.feec.cat/wp-content/uploads/2022/06/cogula.jpg","name":"la Cogula","height":406,"region":"Montsià","essencial":false,"latitude":"40.577228","longitude":"0.482468"},{"id":"la-cogulla","url":"https://www.feec.cat/activitats/100-cims/cim/la-cogulla/","image":"https://www.feec.cat/wp-content/uploads/2019/04/cogulla.jpg","name":"La Cogulla","height":786,"region":"Alt Camp, Conca de Barberà","essencial":false,"latitude":"41.3488047979","longitude":"1.22482709087"},{"id":"la-cogulla-montsant","url":"https://www.feec.cat/activitats/100-cims/cim/la-cogulla-montsant/","image":"https://www.feec.cat/wp-content/uploads/2019/04/La-Cogulla_2-scaled.jpg","name":"La Cogulla (Montsant)","height":1062,"region":"Priorat","essencial":false,"latitude":"41.2775256311","longitude":"0.805672027137"},{"id":"la-coscollosa","url":"https://www.feec.cat/activitats/100-cims/cim/la-coscollosa/","image":"https://www.feec.cat/wp-content/uploads/2019/04/La-Coscollosa_2.jpg","name":"La Coscollosa","height":879,"region":"Baix Ebre","essencial":false,"latitude":"40.9023779146","longitude":"0.413558589612"},{"id":"la-creueta","url":"https://www.feec.cat/activitats/100-cims/cim/la-creueta/","image":"https://www.feec.cat/wp-content/uploads/2022/06/79-la-Creueta.jpg","name":"la Creueta","height":2067,"region":"Berguedà, Ripollès","essencial":false,"latitude":"42.305552","longitude":"2.002298"},{"id":"la-faiada","url":"https://www.feec.cat/activitats/100-cims/cim/la-faiada/","image":"https://www.feec.cat/wp-content/uploads/2019/04/La-Faiada.jpg","name":"La Faiada","height":1699,"region":"Alta Ribagorça, Pallars Jussà","essencial":false,"latitude":"42.3750354872","longitude":"0.77512806113"},{"id":"la-fita-alta","url":"https://www.feec.cat/activitats/100-cims/cim/la-fita-alta/","image":"https://www.feec.cat/wp-content/uploads/2019/04/La-Fita-Alta.jpg","name":"La Fita Alta","height":289,"region":"Pla d'Urgell","essencial":true,"latitude":"41.6129870926","longitude":"0.843120284099"},{"id":"la-guardia-serra-de-busa","url":"https://www.feec.cat/activitats/100-cims/cim/la-guardia-serra-de-busa/","image":"https://www.feec.cat/wp-content/uploads/2022/06/163-la-Guardia-Busa.jpg","name":"la Guàrdia (Serra de Busa)","height":1448,"region":"Solsonès","essencial":false,"latitude":"42.093104","longitude":"1.624209"},{"id":"la-miranda-de-terranyes","url":"https://www.feec.cat/activitats/100-cims/cim/la-miranda-de-terranyes/","image":"https://www.feec.cat/wp-content/uploads/2019/03/default.jpg","name":"la Miranda de Terranyes","height":1193,"region":"Terra Alta","essencial":false,"latitude":"40.835005","longitude":"0.280338"},{"id":"la-mola","url":"https://www.feec.cat/activitats/100-cims/cim/la-mola/","image":"https://www.feec.cat/wp-content/uploads/2019/04/La-Mola-Bonastre-scaled.jpg","name":"La Mola","height":317,"region":"Baix Penedès, Tarragonès","essencial":true,"latitude":"41.2116572604","longitude":"1.41730041394"},{"id":"la-mola-de-sant-llorenc-del-munt","url":"https://www.feec.cat/activitats/100-cims/cim/la-mola-de-sant-llorenc-del-munt/","image":"https://www.feec.cat/wp-content/uploads/2019/04/La-Mola-de-Sant-Llorenç-del-Munt-1.jpg","name":"La Mola de Sant Llorenç del Munt","height":1102,"region":"Vallès Occidental","essencial":true,"latitude":"41.6411519036","longitude":"2.01767220976"},{"id":"la-moleta","url":"https://www.feec.cat/activitats/100-cims/cim/la-moleta/","image":"https://www.feec.cat/wp-content/uploads/2022/06/52-la-Moleta.jpg","name":"la Moleta","height":812,"region":"Baix Ebre","essencial":false,"latitude":"40.899297","longitude":"0.417868"},{"id":"la-morella","url":"https://www.feec.cat/activitats/100-cims/cim/la-morella/","image":"https://www.feec.cat/wp-content/uploads/2019/04/La-Morella.jpg","name":"La Morella","height":594,"region":"Baix Llobregat","essencial":true,"latitude":"41.2965325027","longitude":"1.91548593125"},{"id":"la-muga","url":"https://www.feec.cat/activitats/100-cims/cim/la-muga/","image":"https://www.feec.cat/wp-content/uploads/2019/04/La-Muga_3.jpg","name":"La Muga","height":2861,"region":"Cerdanya","essencial":true,"latitude":"42.4747635712","longitude":"1.67761271375"},{"id":"la-picossa","url":"https://www.feec.cat/activitats/100-cims/cim/la-picossa/","image":"https://www.feec.cat/wp-content/uploads/2019/04/picossa.jpg","name":"La Picossa","height":499,"region":"Ribera d'Ebre","essencial":true,"latitude":"41.1094058162","longitude":"0.57641655962"},{"id":"la-portella-del-pinell","url":"https://www.feec.cat/activitats/100-cims/cim/la-portella-del-pinell/","image":"https://www.feec.cat/wp-content/uploads/2022/06/95-Portella-del-Pinell.jpg","name":"la Portella del Pinell","height":1098,"region":"Montsià","essencial":false,"latitude":"40.712783","longitude":"0.306421"},{"id":"la-serra-vingrau","url":"https://www.feec.cat/activitats/100-cims/cim/la-serra-vingrau/","image":"https://www.feec.cat/wp-content/uploads/2022/06/209-la-Serra-Vingrau.jpg","name":"la Serra (Vingrau)","height":576,"region":"Rosselló","essencial":false,"latitude":"42.865681","longitude":"2.793761"},{"id":"la-soca","url":"https://www.feec.cat/activitats/100-cims/cim/la-soca/","image":"https://www.feec.cat/wp-content/uploads/2022/06/213-la-soca_optimized-scaled.jpg","name":"la Soca","height":1635,"region":"Vallespir","essencial":false,"latitude":"42.460067","longitude":"2.537154"},{"id":"la-tosa","url":"https://www.feec.cat/activitats/100-cims/cim/la-tosa/","image":"https://www.feec.cat/wp-content/uploads/2019/04/La-Tosa.jpg","name":"La Tosa","height":2536,"region":"Berguedà, Cerdanya","essencial":true,"latitude":"42.3205750504","longitude":"1.89266087667"},{"id":"la-tossa-tivissa","url":"https://www.feec.cat/activitats/100-cims/cim/la-tossa-tivissa/","image":"https://www.feec.cat/wp-content/uploads/2019/04/La-Tossa-Tivissa-scaled.jpg","name":"La Tossa (Tivissa)","height":718,"region":"Ribera d'Ebre","essencial":true,"latitude":"41.0289467835","longitude":"0.736267392572"},{"id":"les-agudes","url":"https://www.feec.cat/activitats/100-cims/cim/les-agudes/","image":"https://www.feec.cat/wp-content/uploads/2019/04/Les-Agudes-scaled.jpg","name":"Les Agudes","height":1705,"region":"Selva, Vallès Oriental","essencial":true,"latitude":"41.7893335256","longitude":"2.44395480371"},{"id":"les-borregues","url":"https://www.feec.cat/activitats/100-cims/cim/les-borregues/","image":"https://www.feec.cat/wp-content/uploads/2019/04/Les-Borregues.jpg","name":"Les Borregues","height":2693,"region":"Ripollès","essencial":false,"latitude":"42.3963220756","longitude":"2.2477214416"},{"id":"les-carcoles","url":"https://www.feec.cat/activitats/100-cims/cim/les-carcoles/","image":"https://www.feec.cat/wp-content/uploads/2022/06/144-les-carcoles_optimized-scaled.jpg","name":"les Càrcoles","height":425,"region":"Ribera d'Ebre","essencial":false,"latitude":"41.035922","longitude":"0.679571"},{"id":"les-picardes","url":"https://www.feec.cat/activitats/100-cims/cim/les-picardes/","image":"https://www.feec.cat/wp-content/uploads/2022/06/135-les-picardes_optimized-scaled.jpg","name":"les Picardes","height":2802,"region":"Pallars Sobirà","essencial":false,"latitude":"42.527161","longitude":"1.052679"},{"id":"roca-de-la-barca-les-picossies","url":"https://www.feec.cat/activitats/100-cims/cim/roca-de-la-barca-les-picossies/","image":"https://www.feec.cat/wp-content/uploads/2022/06/picossies.jpg","name":"Les Picòssies","height":772,"region":"Baix Ebre, Ribera d'Ebre","essencial":false,"latitude":"40.963486","longitude":"0.584370"},{"id":"les-piques","url":"https://www.feec.cat/activitats/100-cims/cim/les-piques/","image":"https://www.feec.cat/wp-content/uploads/2019/04/Les-Piques_3-scaled.jpg","name":"Les Piques","height":1969,"region":"Alt Urgell","essencial":false,"latitude":"42.3209657507","longitude":"1.17584546118"},{"id":"les-solius","url":"https://www.feec.cat/activitats/100-cims/cim/les-solius/","image":"https://www.feec.cat/wp-content/uploads/2022/06/les-solius_optimized-scaled.jpg","name":"les Solius","height":533,"region":"Baix Llobregat","essencial":false,"latitude":"41.308457","longitude":"1.886802"},{"id":"lo-blau-roca-grossa-moletans","url":"https://www.feec.cat/activitats/100-cims/cim/lo-blau-roca-grossa-moletans/","image":"https://www.feec.cat/wp-content/uploads/2022/06/lo-blau.jpg","name":"lo Blau (Roca Grossa Moletans)","height":841,"region":"Terra Alta","essencial":false,"latitude":"40.870771","longitude":"0.266146"},{"id":"lo-caramull","url":"https://www.feec.cat/activitats/100-cims/cim/lo-caramull/","image":"https://www.feec.cat/wp-content/uploads/2022/06/54-lo-Caramull.jpg","name":"lo Caramull","height":429,"region":"Baix Ebre","essencial":false,"latitude":"40.987114","longitude":"0.547846"},{"id":"lo-corrunco","url":"https://www.feec.cat/activitats/100-cims/cim/lo-corrunco/","image":"https://www.feec.cat/wp-content/uploads/2019/04/Lo-Corronco_3-scaled.jpg","name":"Lo Corronco","height":2543,"region":"Alta Ribagorça","essencial":true,"latitude":"42.4621240806","longitude":"0.828503168114"},{"id":"lo-morral","url":"https://www.feec.cat/activitats/100-cims/cim/lo-morral/","image":"https://www.feec.cat/wp-content/uploads/2022/06/cim-lo-morral.jpg","name":"lo Morral","height":682,"region":"Priorat","essencial":false,"latitude":"41.156296","longitude":"0.851249"},{"id":"lo-peladet","url":"https://www.feec.cat/activitats/100-cims/cim/lo-peladet/","image":"https://www.feec.cat/wp-content/uploads/2022/06/105-lo-Peladet.jpg","name":"lo Peladet","height":1471,"region":"Noguera, Pallars Jussà","essencial":false,"latitude":"42.026270","longitude":"0.912398"},{"id":"lo-tesol-teso-de-son","url":"https://www.feec.cat/activitats/100-cims/cim/lo-tesol-teso-de-son/","image":"https://www.feec.cat/wp-content/uploads/2019/04/Lo-Tésol_3-scaled.jpg","name":"Lo Tésol (Tesó de Son)","height":2700,"region":"Pallars Sobirà","essencial":true,"latitude":"42.6083714427","longitude":"1.03925511174"},{"id":"lo-tormo","url":"https://www.feec.cat/activitats/100-cims/cim/lo-tormo/","image":"https://www.feec.cat/wp-content/uploads/2019/04/Lo-Tormo-scaled.jpg","name":"Lo Tormo","height":523,"region":"Ribera d'Ebre","essencial":true,"latitude":"41.1790342228","longitude":"0.643458682023"},{"id":"los-picons","url":"https://www.feec.cat/activitats/100-cims/cim/los-picons/","image":"https://www.feec.cat/wp-content/uploads/2019/04/Los-Picons-scaled.jpg","name":"Los Picons","height":951,"region":"Noguera","essencial":false,"latitude":"41.9258368303","longitude":"0.641572525273"},{"id":"malera","url":"https://www.feec.cat/activitats/100-cims/cim/malera/","image":"https://www.feec.cat/wp-content/uploads/2022/06/97-Malera.jpg","name":"Malera","height":877,"region":"Noguera","essencial":false,"latitude":"41.929903","longitude":"0.720439"},{"id":"malh-de-bolard","url":"https://www.feec.cat/activitats/100-cims/cim/malh-de-bolard/","image":"https://www.feec.cat/wp-content/uploads/2022/06/malh-bolard.jpg","name":"Malh de Bolard","height":2753,"region":"Val d'Aran","essencial":false,"latitude":"42.805808","longitude":"0.960450"},{"id":"malh-dera-artiga","url":"https://www.feec.cat/activitats/100-cims/cim/malh-dera-artiga/","image":"https://www.feec.cat/wp-content/uploads/2019/03/default.jpg","name":"Malh dera Artiga","height":2710,"region":"Val d'Aran","essencial":false,"latitude":"42.658615","longitude":"0.695561"},{"id":"malh-des-pois-la-forcanada","url":"https://www.feec.cat/activitats/100-cims/cim/malh-des-pois-la-forcanada/","image":"https://www.feec.cat/wp-content/uploads/2019/04/Malh-des-Pois-la-Forcanada.jpg","name":"Malh des Pois (la Forcanada)","height":2883,"region":"Val d'Aran","essencial":false,"latitude":"42.6432185354","longitude":"0.705628888897"},{"id":"matagalls","url":"https://www.feec.cat/activitats/100-cims/cim/matagalls/","image":"https://www.feec.cat/wp-content/uploads/2019/04/Matagalls-scaled.jpg","name":"Matagalls","height":1697,"region":"Osona, Vallès Oriental","essencial":true,"latitude":"41.8088174884","longitude":"2.38261778463"},{"id":"mauberme","url":"https://www.feec.cat/activitats/100-cims/cim/mauberme/","image":"https://www.feec.cat/wp-content/uploads/2019/04/Maubèrme-scaled.jpg","name":"Maubèrme","height":2882,"region":"Val d'Aran","essencial":true,"latitude":"42.7937464428","longitude":"0.917142208298"},{"id":"mirador-del-pla-de-llet","url":"https://www.feec.cat/activitats/100-cims/cim/mirador-del-pla-de-llet/","image":"https://www.feec.cat/wp-content/uploads/2019/04/Mirador-del-Pla-de-Llet_2-scaled.jpg","name":"Mirador del Pla de Llet","height":2141,"region":"Alt Urgell, Cerdanya","essencial":false,"latitude":"42.4045530362","longitude":"1.6329485067"},{"id":"miranda-de-llaberia","url":"https://www.feec.cat/activitats/100-cims/cim/miranda-de-llaberia/","image":"https://www.feec.cat/wp-content/uploads/2019/07/51-Miranda-de-Llaberia.jpg","name":"Miranda de Llaberia","height":919,"region":"Baix Camp, Ribera d'Ebre","essencial":false,"latitude":"41.092629","longitude":"0.862623"},{"id":"miranda-de-puigcerver","url":"https://www.feec.cat/activitats/100-cims/cim/miranda-de-puigcerver/","image":"https://www.feec.cat/wp-content/uploads/2019/04/Miranda-de-Puigcerver_3-scaled.jpg","name":"Miranda de Puigcerver","height":834,"region":"Baix Camp","essencial":false,"latitude":"41.1935878726","longitude":"0.931584555592"},{"id":"miranda-de-santa-magdalena","url":"https://www.feec.cat/activitats/100-cims/cim/miranda-de-santa-magdalena/","image":"https://www.feec.cat/wp-content/uploads/2019/04/Miranda-de-Santa-Magdalena.jpg","name":"Miranda de Santa Magdalena","height":1132,"region":"Baix Llobregat","essencial":false,"latitude":"41.5884059331","longitude":"1.82647684649"},{"id":"miranda-del-princep","url":"https://www.feec.cat/activitats/100-cims/cim/miranda-del-princep/","image":"https://www.feec.cat/wp-content/uploads/2022/06/39-Miranda-del-Princep.jpg","name":"Miranda del Príncep","height":993,"region":"Anoia","essencial":false,"latitude":"41.604897","longitude":"1.792784"},{"id":"miranda-dels-ecos","url":"https://www.feec.cat/activitats/100-cims/cim/miranda-dels-ecos/","image":"https://www.feec.cat/wp-content/uploads/2019/04/Miranda-dels-Ecos.jpg","name":"Miranda dels Ecos","height":1223,"region":"Anoia","essencial":false,"latitude":"41.604409941","longitude":"1.8062062446"},{"id":"mola-castellona","url":"https://www.feec.cat/activitats/100-cims/cim/mola-castellona/","image":"https://www.feec.cat/wp-content/uploads/2022/06/52-Mola-Castellona.jpg","name":"Mola Castellona","height":1034,"region":"Baix Ebre","essencial":false,"latitude":"40.799761","longitude":"0.369778"},{"id":"mola-destat","url":"https://www.feec.cat/activitats/100-cims/cim/mola-destat/","image":"https://www.feec.cat/wp-content/uploads/2019/04/Mola-dEstat_2.jpg","name":"Mola d’Estat","height":1136,"region":"Baix Camp, Conca de Barberà","essencial":true,"latitude":"41.3255542218","longitude":"1.06058023385"},{"id":"mola-dirto","url":"https://www.feec.cat/activitats/100-cims/cim/mola-dirto/","image":"https://www.feec.cat/wp-content/uploads/2022/06/167-Mola-dIrto.jpg","name":"Mola d’Irto","height":538,"region":"Terra Alta","essencial":false,"latitude":"41.041788","longitude":"0.474800"},{"id":"mola-de-colldejou","url":"https://www.feec.cat/activitats/100-cims/cim/mola-de-colldejou/","image":"https://www.feec.cat/wp-content/uploads/2019/04/Mola-de-Colldejou.jpg","name":"Mola de Colldejou","height":922,"region":"Baix Camp","essencial":true,"latitude":"41.107465464","longitude":"0.873961400419"},{"id":"mola-de-genesies","url":"https://www.feec.cat/activitats/100-cims/cim/mola-de-genesies/","image":"https://www.feec.cat/wp-content/uploads/2019/04/Mola-de-Genesies.jpg","name":"Mola de Genesies","height":711,"region":"Baix Camp, Ribera d'Ebre","essencial":true,"latitude":"41.0162924783","longitude":"0.785434472003"},{"id":"mola-de-lord","url":"https://www.feec.cat/activitats/100-cims/cim/mola-de-lord/","image":"https://www.feec.cat/wp-content/uploads/2022/06/162-Mola-de-Lord.jpg","name":"Mola de Lord","height":1189,"region":"Solsonès","essencial":false,"latitude":"42.116674","longitude":"1.581828"},{"id":"moleta-de-les-canals","url":"https://www.feec.cat/activitats/100-cims/cim/moleta-de-les-canals/","image":"https://www.feec.cat/wp-content/uploads/2022/06/53-moleta-de-les-canals_optimized-scaled.jpg","name":"Moleta de les Canals","height":1070,"region":"Baix Ebre, Terra Alta","essencial":false,"latitude":"40.909033","longitude":"0.362741"},{"id":"mollo-puntaire","url":"https://www.feec.cat/activitats/100-cims/cim/mollo-puntaire/","image":"https://www.feec.cat/wp-content/uploads/2019/04/Mollo-Puntaire_2-scaled.jpg","name":"Molló Puntaire","height":727,"region":"Baix Camp","essencial":true,"latitude":"40.9906241809","longitude":"0.847835490761"},{"id":"mont-roig","url":"https://www.feec.cat/activitats/100-cims/cim/mont-roig/","image":"https://www.feec.cat/wp-content/uploads/2019/04/Montroig.jpg","name":"Mont-roig","height":2864,"region":"Pallars Sobirà","essencial":true,"latitude":"42.7108","longitude":"1.1768"},{"id":"mont-roig-cim-de-les-altures","url":"https://www.feec.cat/activitats/100-cims/cim/mont-roig-cim-de-les-altures/","image":"https://www.feec.cat/wp-content/uploads/2022/06/97-Mont-roig.jpg","name":"Mont-roig (Cim de les Altures)","height":715,"region":"Noguera","essencial":false,"latitude":"41.902987","longitude":"0.878650"},{"id":"montagut-dancosa","url":"https://www.feec.cat/activitats/100-cims/cim/montagut-dancosa/","image":"https://www.feec.cat/wp-content/uploads/2019/04/Montagut-dAncosa.jpg","name":"Montagut d’Ancosa","height":963,"region":"Alt Camp","essencial":false,"latitude":"41.4068776962","longitude":"1.42226158803"},{"id":"montalt","url":"https://www.feec.cat/activitats/100-cims/cim/montalt/","image":"https://www.feec.cat/wp-content/uploads/2019/04/Montalt-scaled.jpg","name":"Montalt","height":597,"region":"Maresme","essencial":true,"latitude":"41.6041277928","longitude":"2.49632222322"},{"id":"montalt-punta-nord","url":"https://www.feec.cat/activitats/100-cims/cim/montalt-punta-nord/","image":"https://www.feec.cat/wp-content/uploads/2019/04/Montalt-Punta-Nord_3-scaled.jpg","name":"Montalt (punta nord)","height":766,"region":"Priorat, Ribera d'Ebre","essencial":false,"latitude":"41.0683345646","longitude":"0.803218722587"},{"id":"montanha-duishera","url":"https://www.feec.cat/activitats/100-cims/cim/montanha-duishera/","image":"https://www.feec.cat/wp-content/uploads/2022/06/181-Montanha-dUishera.jpg","name":"Montanha d’Uishèra","height":2339,"region":"Val d'Aran","essencial":false,"latitude":"42.765611","longitude":"0.732791"},{"id":"montardo","url":"https://www.feec.cat/activitats/100-cims/cim/montardo/","image":"https://www.feec.cat/wp-content/uploads/2019/04/Montardo-scaled.jpg","name":"Montardo","height":2833,"region":"Val d'Aran","essencial":true,"latitude":"42.6333280573","longitude":"0.875353350552"},{"id":"montarenyo-de-boldis","url":"https://www.feec.cat/activitats/100-cims/cim/montarenyo-de-boldis/","image":"https://www.feec.cat/wp-content/uploads/2022/06/P1040906.jpg","name":"Montarenyo de Boldís","height":2593,"region":"Pallars Sobirà","essencial":false,"latitude":"42.637993","longitude":"1.307491"},{"id":"montaspre","url":"https://www.feec.cat/activitats/100-cims/cim/montaspre/","image":"https://www.feec.cat/wp-content/uploads/2022/06/51-montaspre_optimized-scaled.jpg","name":"Montaspre","height":528,"region":"Baix Ebre","essencial":false,"latitude":"40.875580","longitude":"0.570928"},{"id":"montau","url":"https://www.feec.cat/activitats/100-cims/cim/montau/","image":"https://www.feec.cat/wp-content/uploads/2019/04/Montau_2.jpg","name":"Montau","height":658,"region":"Alt Penedès, Baix Llobregat","essencial":false,"latitude":"41.3458636248","longitude":"1.88500083001"},{"id":"montbarbat","url":"https://www.feec.cat/activitats/100-cims/cim/montbarbat/","image":"https://www.feec.cat/wp-content/uploads/2019/04/Montbarbat_2-scaled.jpg","name":"Montbarbat","height":328,"region":"Maresme, Selva","essencial":false,"latitude":"41.7355101863","longitude":"2.7766586707"},{"id":"montcau","url":"https://www.feec.cat/activitats/100-cims/cim/montcau/","image":"https://www.feec.cat/wp-content/uploads/2019/04/Montcau.jpg","name":"Montcau","height":1057,"region":"Bages, Vallès Occidental","essencial":true,"latitude":"41.6750412662","longitude":"2.00462687673"},{"id":"montcaubo-lo-calbo","url":"https://www.feec.cat/activitats/100-cims/cim/montcaubo-lo-calbo/","image":"https://www.feec.cat/wp-content/uploads/2019/04/Montcaubo-scaled.jpg","name":"Montcaubo (lo Calbo)","height":2291,"region":"Pallars Sobirà","essencial":false,"latitude":"42.5986630987","longitude":"1.17941713732"},{"id":"montclar","url":"https://www.feec.cat/activitats/100-cims/cim/montclar/","image":"https://www.feec.cat/wp-content/uploads/2019/04/Montclar_2-scaled.jpg","name":"Montclar","height":401,"region":"Baix Empordà","essencial":false,"latitude":"41.7886622761","longitude":"2.95619265406"},{"id":"montcorbison","url":"https://www.feec.cat/activitats/100-cims/cim/montcorbison/","image":"https://www.feec.cat/wp-content/uploads/2019/04/Montcorbisson.jpg","name":"Montcorbison","height":2173,"region":"Val d'Aran","essencial":true,"latitude":"42.7078178721","longitude":"0.758684327977"},{"id":"monteixo","url":"https://www.feec.cat/activitats/100-cims/cim/monteixo/","image":"https://www.feec.cat/wp-content/uploads/2019/04/Monteixo_2.jpg","name":"Monteixo","height":2905,"region":"Pallars Sobirà","essencial":true,"latitude":"42.601748","longitude":"1.361650"},{"id":"montero","url":"https://www.feec.cat/activitats/100-cims/cim/montero/","image":"https://www.feec.cat/wp-content/uploads/2022/06/99-Montero.jpg","name":"Monteró","height":574,"region":"Noguera","essencial":false,"latitude":"41.862861","longitude":"0.852997"},{"id":"montgros","url":"https://www.feec.cat/activitats/100-cims/cim/montgros/","image":"https://www.feec.cat/wp-content/uploads/2019/04/Montgros.jpg","name":"Montgròs","height":1133,"region":"Anoia","essencial":true,"latitude":"41.5999938678","longitude":"1.80508768977"},{"id":"montigalar","url":"https://www.feec.cat/activitats/100-cims/cim/montigalar/","image":"https://www.feec.cat/wp-content/uploads/2019/04/Montigalar.jpg","name":"Montigalar","height":464,"region":"Gironès","essencial":false,"latitude":"41.9630547913","longitude":"2.92463692226"},{"id":"montllobar","url":"https://www.feec.cat/activitats/100-cims/cim/montllobar/","image":"https://www.feec.cat/wp-content/uploads/2019/04/Montllobar-scaled.jpg","name":"Montllobar","height":1104,"region":"Pallars Jussà","essencial":false,"latitude":"42.1465952076","longitude":"0.797767345034"},{"id":"montlude","url":"https://www.feec.cat/activitats/100-cims/cim/montlude/","image":"https://www.feec.cat/wp-content/uploads/2019/04/Montlude-scaled.jpg","name":"Montlude","height":2518,"region":"Val d'Aran","essencial":true,"latitude":"42.7852609493","longitude":"0.758715323462"},{"id":"montmagastre","url":"https://www.feec.cat/activitats/100-cims/cim/montmagastre/","image":"https://www.feec.cat/wp-content/uploads/2019/04/Montmagastre_2.jpg","name":"Montmagastre","height":762,"region":"Noguera","essencial":false,"latitude":"41.9765577307","longitude":"1.12875357473"},{"id":"montmajor","url":"https://www.feec.cat/activitats/100-cims/cim/montmajor/","image":"https://www.feec.cat/wp-content/uploads/2019/04/Montmajor.jpg","name":"Montmajor","height":1074,"region":"Garrotxa","essencial":false,"latitude":"42.2687834061","longitude":"2.48304982626"},{"id":"montmalus","url":"https://www.feec.cat/activitats/100-cims/cim/montmalus/","image":"https://www.feec.cat/wp-content/uploads/2019/04/Montmalus.jpg","name":"Montmalús","height":2781,"region":"Andorra","essencial":false,"latitude":"42.5089260625","longitude":"1.68656940099"},{"id":"montolier-de-perellos","url":"https://www.feec.cat/activitats/100-cims/cim/montolier-de-perellos/","image":"https://www.feec.cat/wp-content/uploads/2019/04/Montolier-de-Perellós-scaled.jpg","name":"Montolier de Perellós","height":707,"region":"Rosselló","essencial":false,"latitude":"42.9185248623","longitude":"2.86518569768"},{"id":"montpalau","url":"https://www.feec.cat/activitats/100-cims/cim/montpalau/","image":"https://www.feec.cat/wp-content/uploads/2022/06/91-Montpalau.jpg","name":"Montpalau","height":264,"region":"Maresme","essencial":false,"latitude":"41.642219","longitude":"2.670392"},{"id":"montsaliente","url":"https://www.feec.cat/activitats/100-cims/cim/montsaliente/","image":"https://www.feec.cat/wp-content/uploads/2022/06/montsaliente.jpg","name":"Montsaliente","height":2890,"region":"Pallars Sobirà","essencial":false,"latitude":"42.603103","longitude":"1.008688"},{"id":"montsent-serrat-de-picancel","url":"https://www.feec.cat/activitats/100-cims/cim/montsent-serrat-de-picancel/","image":"https://www.feec.cat/wp-content/uploads/2022/06/75-Montsent-Picancel.jpg","name":"Montsent (Serrat de Picancel)","height":963,"region":"Berguedà","essencial":false,"latitude":"42.095783","longitude":"1.908241"},{"id":"montsent-de-pallars","url":"https://www.feec.cat/activitats/100-cims/cim/montsent-de-pallars/","image":"https://www.feec.cat/wp-content/uploads/2019/04/Montsent-de-Pallars-scaled.jpg","name":"Montsent de Pallars","height":2883,"region":"Pallars Jussà, Pallars Sobirà","essencial":true,"latitude":"42.4901106285","longitude":"1.02442265779"},{"id":"monturull","url":"https://www.feec.cat/activitats/100-cims/cim/monturull/","image":"https://www.feec.cat/wp-content/uploads/2019/04/Monturull-scaled.jpg","name":"Monturull","height":2760,"region":"Alt Urgell, Andorra, Cerdanya","essencial":true,"latitude":"42.4499499945","longitude":"1.58099716436"},{"id":"morral-del-cabrafeixet","url":"https://www.feec.cat/activitats/100-cims/cim/morral-del-cabrafeixet/","image":"https://www.feec.cat/wp-content/uploads/2019/04/Morral-de-Cabrafeixet.jpg","name":"Morral del Cabrafeixet","height":753,"region":"Baix Ebre","essencial":false,"latitude":"40.898583\t","longitude":"0.625025"},{"id":"munt-de-montsonis","url":"https://www.feec.cat/activitats/100-cims/cim/munt-de-montsonis/","image":"https://www.feec.cat/wp-content/uploads/2022/06/98-el-Munt-de-Montsonis.jpg","name":"Munt de Montsonís","height":591,"region":"Noguera","essencial":false,"latitude":"41.885768","longitude":"1.014055"},{"id":"noufonts","url":"https://www.feec.cat/activitats/100-cims/cim/noufonts/","image":"https://www.feec.cat/wp-content/uploads/2019/04/Noufonts-scaled.jpg","name":"Noufonts","height":2861,"region":"Conflent, Ripollès","essencial":false,"latitude":"42.4246523941","longitude":"2.16788405017"},{"id":"pala-alta","url":"https://www.feec.cat/activitats/100-cims/cim/pala-alta/","image":"https://www.feec.cat/wp-content/uploads/2019/04/Pala-Alta-scaled.jpg","name":"Pala Alta","height":947,"region":"Noguera","essencial":true,"latitude":"41.8962885339","longitude":"0.836346461295"},{"id":"pala-del-teller","url":"https://www.feec.cat/activitats/100-cims/cim/pala-del-teller/","image":"https://www.feec.cat/wp-content/uploads/2019/04/Pala-del-Teller_2-scaled.jpg","name":"Pala del Teller","height":1889,"region":"Alta Ribagorça, Pallars Jussà","essencial":true,"latitude":"42.3168553491","longitude":"0.809481028197"},{"id":"pedracastell-o-creu-de-canet","url":"https://www.feec.cat/activitats/100-cims/cim/pedracastell-o-creu-de-canet/","image":"https://www.feec.cat/wp-content/uploads/2019/04/Pedracastell-scaled.jpg","name":"Pedracastell o Creu de Canet","height":287,"region":"Maresme","essencial":false,"latitude":"41.6088812679","longitude":"2.57368270577"},{"id":"pedro-de-tubau","url":"https://www.feec.cat/activitats/100-cims/cim/pedro-de-tubau/","image":"https://www.feec.cat/wp-content/uploads/2019/04/Pedró-de-Tubau-1-scaled.jpg","name":"Pedró de Tubau","height":1543,"region":"Berguedà, Ripollès","essencial":false,"latitude":"42.2201958619","longitude":"2.04956708035"},{"id":"pedro-dels-quatre-batlles","url":"https://www.feec.cat/activitats/100-cims/cim/pedro-dels-quatre-batlles/","image":"https://www.feec.cat/wp-content/uploads/2019/04/Pedró-dels-Quatre-Batlles_2.jpg","name":"Pedró dels Quatre Batlles","height":2387,"region":"Alt Urgell, Solsonès","essencial":false,"latitude":"42.1847955583","longitude":"1.5209102343"},{"id":"penya-aguda","url":"https://www.feec.cat/activitats/100-cims/cim/penya-aguda/","image":"https://www.feec.cat/wp-content/uploads/2022/06/14-Penya-Aguda.jpg","name":"Penya Aguda","height":1523,"region":"Alt Urgell","essencial":false,"latitude":"42.214531","longitude":"1.267256"},{"id":"penya-del-papiol","url":"https://www.feec.cat/activitats/100-cims/cim/penya-del-papiol/","image":"https://www.feec.cat/wp-content/uploads/2019/04/Penya-del-Papiol.jpg","name":"Penya del Papiol","height":381,"region":"Alt Penedès","essencial":true,"latitude":"41.322954","longitude":"1.743849"},{"id":"penya-sant-alis","url":"https://www.feec.cat/activitats/100-cims/cim/penya-sant-alis/","image":"https://www.feec.cat/wp-content/uploads/2019/04/Penya-Sant-Alis-scaled.jpg","name":"Penya Sant Alís","height":1675,"region":"Noguera, Pallars Jussà","essencial":true,"latitude":"42.0398582745","longitude":"0.766567591212"},{"id":"penyes-altes","url":"https://www.feec.cat/activitats/100-cims/cim/penyes-altes/","image":"https://www.feec.cat/wp-content/uploads/2019/04/Penyes-Altes_2.jpg","name":"Penyes Altes","height":2276,"region":"Berguedà, Cerdanya","essencial":true,"latitude":"42.3063002008","longitude":"1.84247482148"},{"id":"pic-alt-del-cubil","url":"https://www.feec.cat/activitats/100-cims/cim/pic-alt-del-cubil/","image":"https://www.feec.cat/wp-content/uploads/2022/06/193-Pic-Alt-del-Cubil.jpg","name":"Pic Alt del Cubil","height":2834,"region":"Andorra","essencial":false,"latitude":"42.527781","longitude":"1.670181"},{"id":"pic-descobes","url":"https://www.feec.cat/activitats/100-cims/cim/pic-descobes/","image":"https://www.feec.cat/wp-content/uploads/2019/04/Pic-dEscobes_2-scaled.jpg","name":"Pic d’Escobes","height":2780,"region":"Andorra","essencial":false,"latitude":"42.6091788805","longitude":"1.73563223829"},{"id":"pic-de-baborte","url":"https://www.feec.cat/activitats/100-cims/cim/pic-de-baborte/","image":"https://www.feec.cat/wp-content/uploads/2022/06/pic-de-baborte_optimized-scaled.jpg","name":"Pic de Baborte","height":2934,"region":"Pallars Sobirà","essencial":false,"latitude":"42.657463","longitude":"1.367073"},{"id":"pic-de-baixollada","url":"https://www.feec.cat/activitats/100-cims/cim/pic-de-baixollada/","image":"https://www.feec.cat/wp-content/uploads/2019/04/Pic-de-Baixollada.jpg","name":"Pic de Baixollada","height":2546,"region":"Capcir","essencial":false,"latitude":"42.6611074097","longitude":"2.00222336016"},{"id":"pic-de-cabanyo","url":"https://www.feec.cat/activitats/100-cims/cim/pic-de-cabanyo/","image":"https://www.feec.cat/wp-content/uploads/2022/06/194-Pic-de-Cabanyo.jpg","name":"Pic de Cabanyó","height":2732,"region":"Andorra","essencial":false,"latitude":"42.630904","longitude":"1.468022"},{"id":"pic-de-canalbona","url":"https://www.feec.cat/activitats/100-cims/cim/pic-de-canalbona/","image":"https://www.feec.cat/wp-content/uploads/2022/06/119-pic-de-canalbona_optimized.jpg","name":"Pic de Canalbona","height":2965,"region":"Pallars Sobirà","essencial":false,"latitude":"42.656583","longitude":"1.405891"},{"id":"pic-de-cataperdis","url":"https://www.feec.cat/activitats/100-cims/cim/pic-de-cataperdis/","image":"https://www.feec.cat/wp-content/uploads/2019/04/Pic-de-Cataperdís-scaled.jpg","name":"Pic de Cataperdís","height":2805,"region":"Andorra","essencial":false,"latitude":"42.6148182182","longitude":"1.4774275311"},{"id":"pic-de-certascan","url":"https://www.feec.cat/activitats/100-cims/cim/pic-de-certascan/","image":"https://www.feec.cat/wp-content/uploads/2019/04/Pic-de-Certascan.jpg","name":"Pic de Certascan","height":2853,"region":"Pallars Sobirà","essencial":true,"latitude":"42.7119661042","longitude":"1.27771844284"},{"id":"pic-de-clavera","url":"https://www.feec.cat/activitats/100-cims/cim/pic-de-clavera/","image":"https://www.feec.cat/wp-content/uploads/2019/04/Pic-de-Clavera_3-scaled.jpg","name":"Pic de Clavera","height":2721,"region":"Pallars Sobirà","essencial":false,"latitude":"42.7877860028","longitude":"1.07672157012"},{"id":"pic-de-colatx","url":"https://www.feec.cat/activitats/100-cims/cim/pic-de-colatx/","image":"https://www.feec.cat/wp-content/uploads/2022/06/colatx.jpg","name":"Pic de Colatx","height":2570,"region":"Pallars Sobirà","essencial":false,"latitude":"42.724307","longitude":"1.325358"},{"id":"pic-de-coma-mitjana","url":"https://www.feec.cat/activitats/100-cims/cim/pic-de-coma-mitjana/","image":"https://www.feec.cat/wp-content/uploads/2022/06/204-Pic-de-Coma-Mitjana.jpg","name":"Pic de Coma Mitjana","height":2732,"region":"Conflent","essencial":false,"latitude":"42.441761","longitude":"2.209608"},{"id":"pic-de-comaloforno","url":"https://www.feec.cat/activitats/100-cims/cim/pic-de-comaloforno/","image":"https://www.feec.cat/wp-content/uploads/2019/04/Pic-de-Comaloforno-scaled.jpg","name":"Pic de Comaloforno","height":3029,"region":"Alta Ribagorça","essencial":true,"latitude":"42.5913820355","longitude":"0.827834271065"},{"id":"pic-de-contraix","url":"https://www.feec.cat/activitats/100-cims/cim/pic-de-contraix/","image":"https://www.feec.cat/wp-content/uploads/2022/06/28-pic-de-contraitx_optimized-scaled.jpg","name":"Pic de Contraix","height":2958,"region":"Alta Ribagorça","essencial":false,"latitude":"42.585240","longitude":"0.906931"},{"id":"pic-de-costa-cabirolera","url":"https://www.feec.cat/activitats/100-cims/cim/pic-de-costa-cabirolera/","image":"https://www.feec.cat/wp-content/uploads/2022/06/22-Pic-de-Costa-Cabirolera.jpg","name":"Pic de Costa Cabirolera","height":2604,"region":"Alt Urgell, Berguedà, Cerdanya","essencial":false,"latitude":"42.281459","longitude":"1.670418"},{"id":"pic-de-filia-tossal-de-paiasso","url":"https://www.feec.cat/activitats/100-cims/cim/pic-de-filia-tossal-de-paiasso/","image":"https://www.feec.cat/wp-content/uploads/2019/04/Pic-de-Fillià_2-Tossal-de-Paiasso-scaled.jpg","name":"Pic de Filià (Tossal de Paiasso)","height":2772,"region":"Pallars Jussà","essencial":false,"latitude":"42.4729420398","longitude":"0.930322794098"},{"id":"pic-de-flamisella","url":"https://www.feec.cat/activitats/100-cims/cim/pic-de-flamisella/","image":"https://www.feec.cat/wp-content/uploads/2022/06/125-Pic-de-Flamisella.jpg","name":"Pic de Flamisella","height":2782,"region":"Pallars Sobirà","essencial":false,"latitude":"42.712741","longitude":"1.261402"},{"id":"pic-de-font-blanca","url":"https://www.feec.cat/activitats/100-cims/cim/pic-de-font-blanca/","image":"https://www.feec.cat/wp-content/uploads/2019/04/Pic-de-Font-Blanca_3.jpg","name":"Pic de Font Blanca","height":2903,"region":"Andorra","essencial":false,"latitude":"42.6497189222","longitude":"1.53440090753"},{"id":"pic-de-font-freda","url":"https://www.feec.cat/activitats/100-cims/cim/pic-de-font-freda/","image":"https://www.feec.cat/wp-content/uploads/2019/04/Pic-de-Font-Freda-scaled.jpg","name":"Pic de Font Freda","height":2738,"region":"Cerdanya Nord","essencial":false,"latitude":"42.5363510575","longitude":"1.7949934141"},{"id":"pic-de-gallinassa","url":"https://www.feec.cat/activitats/100-cims/cim/pic-de-gallinassa/","image":"https://www.feec.cat/wp-content/uploads/2022/06/gallinassa.jpg","name":"Pic de Gallinassa","height":2461,"region":"Conflent, Vallespir","essencial":false,"latitude":"42.502000","longitude":"2.507173"},{"id":"pic-de-gerri","url":"https://www.feec.cat/activitats/100-cims/cim/pic-de-gerri/","image":"https://www.feec.cat/wp-content/uploads/2022/06/123-Pic-de-Gerri.jpg","name":"Pic de Gerri","height":2859,"region":"Pallars Sobirà","essencial":false,"latitude":"42.597526","longitude":"1.394249"},{"id":"pic-de-laguila","url":"https://www.feec.cat/activitats/100-cims/cim/pic-de-laguila/","image":"https://www.feec.cat/wp-content/uploads/2022/06/150-Pic-de-lAguila.jpg","name":"Pic de l’Àguila","height":492,"region":"Ribera d'Ebre","essencial":false,"latitude":"41.139903","longitude":"0.602189"},{"id":"pic-de-lespada","url":"https://www.feec.cat/activitats/100-cims/cim/pic-de-lespada/","image":"https://www.feec.cat/wp-content/uploads/2022/06/74-pic-de-lespada_optimized-scaled.jpg","name":"Pic de l’Espada","height":2549,"region":"Pallars Jussà","essencial":false,"latitude":"42.499185","longitude":"0.971881"},{"id":"pic-de-lestanyo","url":"https://www.feec.cat/activitats/100-cims/cim/pic-de-lestanyo/","image":"https://www.feec.cat/wp-content/uploads/2019/07/pic-de-lestanyo_optimized.jpg","name":"Pic de l’Estanyó","height":2915,"region":"Andorra","essencial":false,"latitude":"42.608698","longitude":"1.592584"},{"id":"pic-de-linfern","url":"https://www.feec.cat/activitats/100-cims/cim/pic-de-linfern/","image":"https://www.feec.cat/wp-content/uploads/2019/04/Pic-de-lInfern-scaled.jpg","name":"Pic de l’Infern","height":2870,"region":"Conflent","essencial":false,"latitude":"42.4239313658","longitude":"2.21373246579"},{"id":"pic-de-la-coma-de-varilles","url":"https://www.feec.cat/activitats/100-cims/cim/pic-de-la-coma-de-varilles/","image":"https://www.feec.cat/wp-content/uploads/2022/06/P1040489.jpg","name":"Pic de la Coma de Varilles","height":2760,"region":"Andorra","essencial":false,"latitude":"42.619163","longitude":"1.664295"},{"id":"pic-de-la-mainera","url":"https://www.feec.cat/activitats/100-cims/cim/pic-de-la-mainera/","image":"https://www.feec.cat/wp-content/uploads/2022/06/110-pic-de-mainera_optimized.jpg","name":"Pic de la Mainera","height":2909,"region":"Pallars Jussà, Pallars Sobirà","essencial":false,"latitude":"42.524480","longitude":"1.027159"},{"id":"pic-de-la-pala-alta-de-sarrade","url":"https://www.feec.cat/activitats/100-cims/cim/pic-de-la-pala-alta-de-sarrade/","image":"https://www.feec.cat/wp-content/uploads/2019/04/Pic-de-la-Pala-Alta-de-Sarradé.jpg","name":"Pic de la Pala Alta de Sarradé","height":2983,"region":"Alta Ribagorça","essencial":false,"latitude":"42.5747132507","longitude":"0.890942673958"},{"id":"pic-de-la-plana","url":"https://www.feec.cat/activitats/100-cims/cim/pic-de-la-plana/","image":"https://www.feec.cat/wp-content/uploads/2022/06/130-pic-de-la-plana_optimized.jpg","name":"Pic de la Plana","height":2493,"region":"Pallars Sobirà","essencial":false,"latitude":"42.661582","longitude":"1.036675"},{"id":"pic-de-la-serrera","url":"https://www.feec.cat/activitats/100-cims/cim/pic-de-la-serrera/","image":"https://www.feec.cat/wp-content/uploads/2019/04/Pic-de-la-Serrera_2-scaled.jpg","name":"Pic de la Serrera","height":2912,"region":"Andorra","essencial":true,"latitude":"42.625535127","longitude":"1.602514145"},{"id":"pic-de-llena","url":"https://www.feec.cat/activitats/100-cims/cim/pic-de-llena/","image":"https://www.feec.cat/wp-content/uploads/2022/06/117-Pic-de-Llena.jpg","name":"Pic de Llena","height":2686,"region":"Pallars Jussà","essencial":false,"latitude":"42.446888","longitude":"0.917915"},{"id":"pic-de-maniga","url":"https://www.feec.cat/activitats/100-cims/cim/pic-de-maniga/","image":"https://www.feec.cat/wp-content/uploads/2019/04/Pic-de-Màniga-scaled.jpg","name":"Pic de Màniga","height":2517,"region":"Pallars Sobirà","essencial":false,"latitude":"42.5057348985","longitude":"1.32883919585"},{"id":"pic-de-mariola","url":"https://www.feec.cat/activitats/100-cims/cim/pic-de-mariola/","image":"https://www.feec.cat/wp-content/uploads/2022/06/Pic-de-Mariola.jpg","name":"Pic de Mariola","height":2663,"region":"Pallars Sobirà","essencial":false,"latitude":"42.720051","longitude":"1.216644"},{"id":"pic-de-mariolo-pic-de-neriolo","url":"https://www.feec.cat/activitats/100-cims/cim/pic-de-mariolo-pic-de-neriolo/","image":"https://www.feec.cat/wp-content/uploads/2022/06/26-pic-de-mariolo_optimized-scaled.jpg","name":"Pic de Mariolo (Pic de Neriolo)","height":2857,"region":"Alta Ribagorça, Pallars Jussà","essencial":false,"latitude":"42.530730","longitude":"0.957631"},{"id":"pic-de-medacorba","url":"https://www.feec.cat/activitats/100-cims/cim/pic-de-medacorba/","image":"https://www.feec.cat/wp-content/uploads/2019/04/Pic-de-Medacorba-scaled.jpg","name":"Pic de Medacorba","height":2915,"region":"Andorra, Pallars Sobirà","essencial":false,"latitude":"42.603724","longitude":"1.441992"},{"id":"pic-de-montalt","url":"https://www.feec.cat/activitats/100-cims/cim/pic-de-montalt/","image":"https://www.feec.cat/wp-content/uploads/2022/06/pic-de-montalt-1_optimized-1-scaled.jpg","name":"Pic de Montalt","height":2496,"region":"Pallars Sobirà","essencial":false,"latitude":"42.750379","longitude":"1.132836"},{"id":"pic-de-moredo","url":"https://www.feec.cat/activitats/100-cims/cim/pic-de-moredo/","image":"https://www.feec.cat/wp-content/uploads/2019/04/Pic-de-Moredo_2-scaled.jpg","name":"Pic de Moredo","height":2766,"region":"Pallars Sobirà","essencial":true,"latitude":"42.718939301","longitude":"1.04993056374"},{"id":"pic-de-peguera","url":"https://www.feec.cat/activitats/100-cims/cim/pic-de-peguera/","image":"https://www.feec.cat/wp-content/uploads/2019/04/Pic-de-Peguera_2.jpg","name":"Pic de Peguera","height":2983,"region":"Pallars Jussà, Pallars Sobirà","essencial":true,"latitude":"42.540541256","longitude":"1.01195828499"},{"id":"pic-de-pilas","url":"https://www.feec.cat/activitats/100-cims/cim/pic-de-pilas/","image":"https://www.feec.cat/wp-content/uploads/2019/04/Pic-de-Pilàs_2-scaled.jpg","name":"Pic de Pilàs","height":2656,"region":"Pallars Sobirà","essencial":false,"latitude":"42.6828291223","longitude":"1.13150733611"},{"id":"pic-de-quenca","url":"https://www.feec.cat/activitats/100-cims/cim/pic-de-quenca/","image":"https://www.feec.cat/wp-content/uploads/2022/06/138-Pic-de-Quenca.jpg","name":"Pic de Qüenca","height":2639,"region":"Pallars Sobirà","essencial":false,"latitude":"42.699814","longitude":"1.054304"},{"id":"pic-de-raco-gros","url":"https://www.feec.cat/activitats/100-cims/cim/pic-de-raco-gros/","image":"https://www.feec.cat/wp-content/uploads/2019/04/Pic-de-Racó-Gros_2-scaled.jpg","name":"Pic de Racó Gros","height":2782,"region":"Conflent","essencial":false,"latitude":"42.4322202523","longitude":"2.1871139362"},{"id":"pic-de-saboredo","url":"https://www.feec.cat/activitats/100-cims/cim/pic-de-saboredo/","image":"https://www.feec.cat/wp-content/uploads/2022/06/128_optimized.-tuc-saboredo.jpg","name":"Pic de Saboredo","height":2830,"region":"Pallars Sobirà","essencial":false,"latitude":"42.607902","longitude":"0.981018"},{"id":"pic-de-sallafort","url":"https://www.feec.cat/activitats/100-cims/cim/pic-de-sallafort/","image":"https://www.feec.cat/wp-content/uploads/2019/04/Pic-de-Sallafort-scaled.jpg","name":"Pic de Sallafort","height":994,"region":"Alt Empordà, Rosselló","essencial":false,"latitude":"42.4734705922","longitude":"3.03804096524"},{"id":"pic-de-saloria","url":"https://www.feec.cat/activitats/100-cims/cim/pic-de-saloria/","image":"https://www.feec.cat/wp-content/uploads/2019/04/Pic-de-Salòria_2-scaled.jpg","name":"Pic de Salòria","height":2789,"region":"Alt Urgell, Pallars Sobirà","essencial":true,"latitude":"42.5144490848","longitude":"1.38513757735"},{"id":"pic-de-sanfonts","url":"https://www.feec.cat/activitats/100-cims/cim/pic-de-sanfonts/","image":"https://www.feec.cat/wp-content/uploads/2022/06/pic-de-santfonts-1_optimized-scaled.jpg","name":"Pic de Sanfonts","height":2889,"region":"Andorra, Pallars Sobirà","essencial":false,"latitude":"42.587471","longitude":"1.427663"},{"id":"pic-de-sotllo","url":"https://www.feec.cat/activitats/100-cims/cim/pic-de-sotllo/","image":"https://www.feec.cat/wp-content/uploads/2019/04/Pic-de-Sotllo.jpg","name":"Pic de Sotllo","height":3073,"region":"Pallars Sobirà","essencial":true,"latitude":"42.6687087543","longitude":"1.38745825992"},{"id":"pic-de-subenuix","url":"https://www.feec.cat/activitats/100-cims/cim/pic-de-subenuix/","image":"https://www.feec.cat/wp-content/uploads/2019/04/Pic-de-Subenuix_2.jpg","name":"Pic de Subenuix","height":2950,"region":"Pallars Jussà, Pallars Sobirà","essencial":false,"latitude":"42.5549470732","longitude":"0.979380978448"},{"id":"pic-de-ventolau","url":"https://www.feec.cat/activitats/100-cims/cim/pic-de-ventolau/","image":"https://www.feec.cat/wp-content/uploads/2022/06/136-Pic-de-Ventolau.jpg","name":"Pic de Ventolau","height":2851,"region":"Pallars Sobirà","essencial":false,"latitude":"42.690651","longitude":"1.190422"},{"id":"pic-del-pla-de-lestany","url":"https://www.feec.cat/activitats/100-cims/cim/pic-del-pla-de-lestany/","image":"https://www.feec.cat/wp-content/uploads/2022/06/190-Pic-del-Pla-de-lEstany.jpg","name":"Pic del Pla de l’Estany","height":2860,"region":"Andorra","essencial":false,"latitude":"42.606802","longitude":"1.464030"},{"id":"pic-del-portarro","url":"https://www.feec.cat/activitats/100-cims/cim/pic-del-portarro/","image":"https://www.feec.cat/wp-content/uploads/2022/06/141_optimized.-pic-portarro.jpg","name":"Pic del Portarró","height":2734,"region":"Pallars Sobirà","essencial":false,"latitude":"42.583737","longitude":"0.970147"},{"id":"pic-del-vent","url":"https://www.feec.cat/activitats/100-cims/cim/pic-del-vent/","image":"https://www.feec.cat/wp-content/uploads/2019/04/Pic-del-Vent-scaled.jpg","name":"Pic del Vent","height":816,"region":"Vallès Oriental","essencial":true,"latitude":"41.6553025564","longitude":"2.12829694974"},{"id":"pic-dels-moros","url":"https://www.feec.cat/activitats/100-cims/cim/pic-dels-moros/","image":"https://www.feec.cat/wp-content/uploads/2019/04/Pic-dels-Moros_2-scaled.jpg","name":"Pic dels Moros","height":2137,"region":"Cerdanya Nord","essencial":false,"latitude":"42.5131817626","longitude":"1.99099502046"},{"id":"pic-dels-pedrons","url":"https://www.feec.cat/activitats/100-cims/cim/pic-dels-pedrons/","image":"https://www.feec.cat/wp-content/uploads/2022/06/197-pic-dels-padrons_optimized-scaled.jpg","name":"Pic dels Pedrons","height":2715,"region":"Cerdanya Nord","essencial":false,"latitude":"42.531510","longitude":"1.752267"},{"id":"pic-dels-pessons-o-gargantillar","url":"https://www.feec.cat/activitats/100-cims/cim/pic-dels-pessons-o-gargantillar/","image":"https://www.feec.cat/wp-content/uploads/2022/06/pic-de-pessons_optimized.jpg","name":"Pic dels Pessons o Gargantillar","height":2862,"region":"Andorra","essencial":false,"latitude":"42.508121","longitude":"1.664673"},{"id":"pic-negre-denvalira","url":"https://www.feec.cat/activitats/100-cims/cim/pic-negre-denvalira/","image":"https://www.feec.cat/wp-content/uploads/2019/04/Pic-Negre-dEnvalira.jpg","name":"Pic Negre d’Envalira","height":2822,"region":"Andorra, Cerdanya Nord","essencial":true,"latitude":"42.5172544705","longitude":"1.72144258547"},{"id":"pic-roi","url":"https://www.feec.cat/activitats/100-cims/cim/pic-roi/","image":"https://www.feec.cat/wp-content/uploads/2022/06/P1050353.jpg","name":"Pic Roi","height":2585,"region":"Alta Ribagorça","essencial":false,"latitude":"42.565195","longitude":"0.798188"},{"id":"pic-tort","url":"https://www.feec.cat/activitats/100-cims/cim/pic-tort/","image":"https://www.feec.cat/wp-content/uploads/2022/06/93-pic-tort_optimized.jpg","name":"Pic Tort","height":2886,"region":"Pallars Jussà","essencial":false,"latitude":"42.533747","longitude":"0.988832"},{"id":"pica-destats","url":"https://www.feec.cat/activitats/100-cims/cim/pica-destats/","image":"https://www.feec.cat/wp-content/uploads/2019/04/Pica-dEstats.jpg","name":"Pica d’Estats","height":3144,"region":"Pallars Sobirà","essencial":true,"latitude":"42.6669371771","longitude":"1.39790065859"},{"id":"pica-de-cervi","url":"https://www.feec.cat/activitats/100-cims/cim/pica-de-cervi/","image":"https://www.feec.cat/wp-content/uploads/2019/04/Pica-de-Cerví_2.jpg","name":"Pica de Cerví","height":2753,"region":"Pallars Jussà","essencial":true,"latitude":"42.4529431796","longitude":"0.879226097309"},{"id":"pica-roja","url":"https://www.feec.cat/activitats/100-cims/cim/pica-roja/","image":"https://www.feec.cat/wp-content/uploads/2019/04/Pica-Roja.jpg","name":"Pica Roja","height":2903,"region":"Pallars Sobirà","essencial":false,"latitude":"42.624996751","longitude":"1.42041450706"},{"id":"picorandan","url":"https://www.feec.cat/activitats/100-cims/cim/picorandan/","image":"https://www.feec.cat/wp-content/uploads/2019/04/Picorandan.jpg","name":"Picorandan","height":991,"region":"Baix Camp","essencial":false,"latitude":"41.2878857333","longitude":"1.01719022482"},{"id":"pics-de-bassiero","url":"https://www.feec.cat/activitats/100-cims/cim/pics-de-bassiero/","image":"https://www.feec.cat/wp-content/uploads/2019/04/Pics-de-Bassiero-Occ-scaled.jpg","name":"Pics de Bassiero (Occidental)","height":2903,"region":"Pallars Sobirà","essencial":false,"latitude":"42.6066752263","longitude":"0.995373452004"},{"id":"pilar-dalmenara","url":"https://www.feec.cat/activitats/100-cims/cim/pilar-dalmenara/","image":"https://www.feec.cat/wp-content/uploads/2019/04/Pilar-dAlmenara-scaled.jpg","name":"Pilar d’Almenara","height":459,"region":"Urgell","essencial":true,"latitude":"41.7534156867","longitude":"1.06724684153"},{"id":"pilo-de-bellmaig","url":"https://www.feec.cat/activitats/100-cims/cim/pilo-de-bellmaig/","image":"https://www.feec.cat/wp-content/uploads/2022/06/pilo-de-bellmaig_optimized-scaled.jpg","name":"Piló de Bellmaig","height":1281,"region":"Vallespir","essencial":false,"latitude":"42.432057","longitude":"2.650714"},{"id":"pollego-inferior-pedraforca","url":"https://www.feec.cat/activitats/100-cims/cim/pollego-inferior-pedraforca/","image":"https://www.feec.cat/wp-content/uploads/2022/06/73-Pollego-Inferior.jpg","name":"Pollegó Inferior (Pedraforca)","height":2445,"region":"Berguedà","essencial":false,"latitude":"42.235630","longitude":"1.707024"},{"id":"pollego-superior-pedraforca","url":"https://www.feec.cat/activitats/100-cims/cim/pollego-superior-pedraforca/","image":"https://www.feec.cat/wp-content/uploads/2019/04/Pedraforca_2.jpg","name":"Pollegó Superior (Pedraforca)","height":2506,"region":"Berguedà","essencial":true,"latitude":"42.2399451722","longitude":"1.70292577431"},{"id":"pui-durdosa","url":"https://www.feec.cat/activitats/100-cims/cim/pui-durdosa/","image":"https://www.feec.cat/wp-content/uploads/2022/06/117-pui-durdosa_optimized-scaled.jpg","name":"Pui d’Urdosa","height":2226,"region":"Pallars Sobirà","essencial":false,"latitude":"42.471185","longitude":"1.248309"},{"id":"pui-de-cassibros","url":"https://www.feec.cat/activitats/100-cims/cim/pui-de-cassibros/","image":"https://www.feec.cat/wp-content/uploads/2022/06/121-pui-de-casibros_optimized.jpg","name":"Pui de Cassibrós","height":2085,"region":"Pallars Sobirà","essencial":false,"latitude":"42.560695","longitude":"1.264857"},{"id":"pui-de-la-bonaigua","url":"https://www.feec.cat/activitats/100-cims/cim/pui-de-la-bonaigua/","image":"https://www.feec.cat/wp-content/uploads/2022/06/124-pui-de-la-bonaigua_optimized-scaled.jpg","name":"Pui de la Bonaigua","height":2778,"region":"Pallars Sobirà","essencial":false,"latitude":"42.627196","longitude":"1.019481"},{"id":"pui-de-linya","url":"https://www.feec.cat/activitats/100-cims/cim/pui-de-linya/","image":"https://www.feec.cat/wp-content/uploads/2022/06/pui-de-linya_optimized-scaled.jpg","name":"Pui de Linya","height":2870,"region":"Pallars Sobirà","essencial":false,"latitude":"42.565985","longitude":"1.043251"},{"id":"pui-de-lleras","url":"https://www.feec.cat/activitats/100-cims/cim/pui-de-lleras/","image":"https://www.feec.cat/wp-content/uploads/2019/04/Pui-de-Lleras-scaled.jpg","name":"Pui de Lleràs","height":1692,"region":"Pallars Jussà","essencial":true,"latitude":"42.2691950908","longitude":"0.852649166388"},{"id":"pui-tabaca","url":"https://www.feec.cat/activitats/100-cims/cim/pui-tabaca/","image":"https://www.feec.cat/wp-content/uploads/2022/06/122-Pui-Tabaca.jpg","name":"Pui Tabaca","height":1718,"region":"Pallars Sobirà","essencial":false,"latitude":"42.588479","longitude":"1.223107"},{"id":"puig-cadiretes","url":"https://www.feec.cat/activitats/100-cims/cim/puig-cadiretes/","image":"https://www.feec.cat/wp-content/uploads/2019/04/Puig-Cadiretes-scaled.jpg","name":"Puig Cadiretes","height":519,"region":"Gironès, Selva","essencial":false,"latitude":"41.7573307749","longitude":"2.92821015443"},{"id":"puig-castellar","url":"https://www.feec.cat/activitats/100-cims/cim/puig-castellar/","image":"https://www.feec.cat/wp-content/uploads/2019/04/Puig-Castellar-scaled.jpg","name":"Puig Castellar","height":303,"region":"Barcelonès, Vallès Occidental","essencial":true,"latitude":"41.4703022946","longitude":"2.2065864631"},{"id":"puig-cavaller","url":"https://www.feec.cat/activitats/100-cims/cim/puig-cavaller/","image":"https://www.feec.cat/wp-content/uploads/2019/04/Puig-Cavaller-scaled.jpg","name":"Puig Cavaller","height":706,"region":"Terra Alta","essencial":false,"latitude":"41.0277617786","longitude":"0.437628283448"},{"id":"puig-cendros","url":"https://www.feec.cat/activitats/100-cims/cim/puig-cendros/","image":"https://www.feec.cat/wp-content/uploads/2019/04/Puig-Cendros.jpg","name":"Puig Cendrós","height":499,"region":"Baix Llobregat","essencial":false,"latitude":"41.5756360735","longitude":"1.89299280596"},{"id":"puig-clara","url":"https://www.feec.cat/activitats/100-cims/cim/puig-clara/","image":"https://www.feec.cat/wp-content/uploads/2022/06/puig_clara.jpg","name":"Puig Clarà","height":315,"region":"Pla de l'Estany","essencial":false,"latitude":"42.132836","longitude":"2.738329"},{"id":"puig-cornador","url":"https://www.feec.cat/activitats/100-cims/cim/puig-cornador/","image":"https://www.feec.cat/wp-content/uploads/2019/04/Puig-Cornador-1.jpg","name":"Puig Cornador","height":1229,"region":"Ripollès","essencial":false,"latitude":"42.1397374015","longitude":"2.10833614168"},{"id":"puig-cubell","url":"https://www.feec.cat/activitats/100-cims/cim/puig-cubell/","image":"https://www.feec.cat/wp-content/uploads/2022/06/89-Puig-Cubell.jpg","name":"Puig Cubell","height":1488,"region":"Garrotxa, Osona","essencial":false,"latitude":"42.137669","longitude":"2.350877"},{"id":"puig-daguilera","url":"https://www.feec.cat/activitats/100-cims/cim/puig-daguilera/","image":"https://www.feec.cat/wp-content/uploads/2019/04/Puig-dAguilera-scaled.jpg","name":"Puig d’Aguilera","height":626,"region":"Anoia","essencial":false,"latitude":"41.6047885186","longitude":"1.67081069484"},{"id":"puig-dagulles","url":"https://www.feec.cat/activitats/100-cims/cim/puig-dagulles/","image":"https://www.feec.cat/wp-content/uploads/2019/04/Puig-dAgulles-scaled.jpg","name":"Puig d’Agulles","height":653,"region":"Alt Penedès, Baix Llobregat","essencial":false,"latitude":"41.4080777208","longitude":"1.88497858406"},{"id":"puig-darques","url":"https://www.feec.cat/activitats/100-cims/cim/puig-darques/","image":"https://www.feec.cat/wp-content/uploads/2019/04/Puig-dArques-scaled.jpg","name":"Puig d’Arques","height":533,"region":"Baix Empordà","essencial":false,"latitude":"41.8887283793","longitude":"2.99429857701"},{"id":"puig-den-cama","url":"https://www.feec.cat/activitats/100-cims/cim/puig-den-cama/","image":"https://www.feec.cat/wp-content/uploads/2019/04/Puig-den-Cama.jpg","name":"Puig d’en Cama","height":717,"region":"Baix Camp","essencial":false,"latitude":"41.2202617175","longitude":"1.09406719048"},{"id":"puig-den-jorda","url":"https://www.feec.cat/activitats/100-cims/cim/puig-den-jorda/","image":"https://www.feec.cat/wp-content/uploads/2022/06/08-Puig-den-Jorda.jpg","name":"Puig d’en Jordà","height":754,"region":"Alt Empordà, Rosselló","essencial":false,"latitude":"42.427758","longitude":"3.082050"},{"id":"puig-desquers","url":"https://www.feec.cat/activitats/100-cims/cim/puig-desquers/","image":"https://www.feec.cat/wp-content/uploads/2019/04/Puig-dEsquers-scaled.jpg","name":"Puig d’Esquers","height":606,"region":"Alt Empordà","essencial":false,"latitude":"42.3926797402","longitude":"3.09635933543"},{"id":"puig-dolorda","url":"https://www.feec.cat/activitats/100-cims/cim/puig-dolorda/","image":"https://www.feec.cat/wp-content/uploads/2019/04/Puig-dOlorda-scaled.jpg","name":"Puig d’Olorda","height":436,"region":"Baix Llobregat, Barcelonès","essencial":false,"latitude":"41.412212","longitude":"2.055209"},{"id":"puig-de-bestreca","url":"https://www.feec.cat/activitats/100-cims/cim/puig-de-bestreca/","image":"https://www.feec.cat/wp-content/uploads/2019/04/Puig-de-Bestrecà-scaled.jpg","name":"Puig de Bestracà","height":1056,"region":"Ripollès","essencial":false,"latitude":"42.2943132206","longitude":"2.51542425463"},{"id":"puig-de-cervera","url":"https://www.feec.cat/activitats/100-cims/cim/puig-de-cervera/","image":"https://www.feec.cat/wp-content/uploads/2022/06/07-Puig-de-Cervera.jpg","name":"Puig de Cervera","height":207,"region":"Alt Empordà, Rosselló","essencial":false,"latitude":"42.435216","longitude":"3.170752"},{"id":"pic-de-coma-dor","url":"https://www.feec.cat/activitats/100-cims/cim/pic-de-coma-dor/","image":"https://www.feec.cat/wp-content/uploads/2019/07/coma-dor_optimized.jpg","name":"Puig de Coma d’Or","height":2826,"region":"Cerdanya Nord","essencial":false,"latitude":"42.583556","longitude":"1.873621"},{"id":"puig-de-dorria","url":"https://www.feec.cat/activitats/100-cims/cim/puig-de-dorria/","image":"https://www.feec.cat/wp-content/uploads/2022/06/puig-dorria.jpg","name":"Puig de Dòrria","height":2547,"region":"Cerdanya Nord, Ripollès","essencial":false,"latitude":"42.361767","longitude":"2.084664"},{"id":"puig-de-font-viva","url":"https://www.feec.cat/activitats/100-cims/cim/puig-de-font-viva/","image":"https://www.feec.cat/wp-content/uploads/2022/06/puig-de-font-viva_optimized.jpg","name":"Puig de Font Viva","height":2673,"region":"Cerdanya Nord","essencial":false,"latitude":"42.569143","longitude":"1.879615"},{"id":"puig-de-gallicant","url":"https://www.feec.cat/activitats/100-cims/cim/puig-de-gallicant/","image":"https://www.feec.cat/wp-content/uploads/2019/04/Puig-de-Gallicant.jpg","name":"Puig de Gallicant","height":1010,"region":"Baix Camp","essencial":false,"latitude":"41.2495015167","longitude":"0.960719737495"},{"id":"puig-de-gallinas","url":"https://www.feec.cat/activitats/100-cims/cim/puig-de-gallinas/","image":"https://www.feec.cat/wp-content/uploads/2019/04/Puig-de-Gallinàs_2-scaled.jpg","name":"Puig de Gallinàs","height":2624,"region":"Conflent","essencial":false,"latitude":"42.4777793254","longitude":"2.2153093651"},{"id":"puig-de-grialo","url":"https://www.feec.cat/activitats/100-cims/cim/puig-de-grialo/","image":"https://www.feec.cat/wp-content/uploads/2019/04/Puig-de-Grialó_2-scaled.jpg","name":"Puig de Grialó","height":667,"region":"Noguera","essencial":false,"latitude":"41.9017488183","longitude":"1.10878212966"},{"id":"puig-de-laliga","url":"https://www.feec.cat/activitats/100-cims/cim/puig-de-laliga/","image":"https://www.feec.cat/wp-content/uploads/2019/04/Puig-de-lAliga_2.jpg","name":"Puig de l’Àliga","height":464,"region":"Alt Penedès, Garraf","essencial":true,"latitude":"41.2838672007","longitude":"1.69738245456"},{"id":"puig-de-laliga-cap-de-creus","url":"https://www.feec.cat/activitats/100-cims/cim/puig-de-laliga-cap-de-creus/","image":"https://www.feec.cat/wp-content/uploads/2022/06/02-Puig-de-lAliga-rotated.jpg","name":"Puig de l’Àliga (Cap de Creus)","height":463,"region":"Alt Empordà","essencial":false,"latitude":"42.280507","longitude":"3.204968"},{"id":"puig-de-lestella","url":"https://www.feec.cat/activitats/100-cims/cim/puig-de-lestella/","image":"https://www.feec.cat/wp-content/uploads/2019/04/Puig-de-lEstella_2-scaled.jpg","name":"Puig de l’Estella","height":1778,"region":"Conflent, Vallespir","essencial":false,"latitude":"42.5146828414","longitude":"2.55355631584"},{"id":"puig-de-la-cabrafiga","url":"https://www.feec.cat/activitats/100-cims/cim/puig-de-la-cabrafiga/","image":"https://www.feec.cat/wp-content/uploads/2019/04/Puig-de-la-Cabrafiga.jpg","name":"Puig de la Cabrafiga","height":614,"region":"Baix Camp","essencial":true,"latitude":"41.0534399179","longitude":"0.895050001562"},{"id":"puig-de-la-caritat","url":"https://www.feec.cat/activitats/100-cims/cim/puig-de-la-caritat/","image":"https://www.feec.cat/wp-content/uploads/2019/04/Puig-de-la-Caritat-scaled.jpg","name":"Puig de la Caritat","height":1010,"region":"Moianès","essencial":true,"latitude":"41.8757956096","longitude":"2.10883311828"},{"id":"puig-de-la-collada-verda","url":"https://www.feec.cat/activitats/100-cims/cim/puig-de-la-collada-verda/","image":"https://www.feec.cat/wp-content/uploads/2022/06/208-Puig-de-la-Collada-Verda.jpg","name":"Puig de la Collada Verda","height":2403,"region":"Conflent, Vallespir","essencial":false,"latitude":"42.454611","longitude":"2.396931"},{"id":"puig-de-la-cometa","url":"https://www.feec.cat/activitats/100-cims/cim/puig-de-la-cometa/","image":"https://www.feec.cat/wp-content/uploads/2022/06/197-Puig-de-la-Cometa.jpg","name":"Puig de la Cometa","height":2763,"region":"Cerdanya Nord","essencial":false,"latitude":"42.617214","longitude":"1.959298"},{"id":"puig-de-la-cova","url":"https://www.feec.cat/activitats/100-cims/cim/puig-de-la-cova/","image":"https://www.feec.cat/wp-content/uploads/2019/04/Puig-de-la-Cova.jpg","name":"Puig de la Cova","height":672,"region":"Baix Penedès","essencial":false,"latitude":"41.3151038048","longitude":"1.47510807421"},{"id":"puig-de-la-creu","url":"https://www.feec.cat/activitats/100-cims/cim/puig-de-la-creu/","image":"https://www.feec.cat/wp-content/uploads/2019/04/Puig-de-la-Creu-scaled.jpg","name":"Puig de la Creu","height":668,"region":"Vallès Occidental","essencial":true,"latitude":"41.6292076749","longitude":"2.10122891326"},{"id":"puig-de-la-forca","url":"https://www.feec.cat/activitats/100-cims/cim/puig-de-la-forca/","image":"https://www.feec.cat/wp-content/uploads/2019/04/Puig-de-la-Força_2.jpg","name":"Puig de la Força","height":740,"region":"Osona","essencial":false,"latitude":"41.9810070598","longitude":"2.38898447593"},{"id":"puig-de-la-gavarra","url":"https://www.feec.cat/activitats/100-cims/cim/puig-de-la-gavarra/","image":"https://www.feec.cat/wp-content/uploads/2019/04/Puig-de-la-Gavarra_2.jpg","name":"Puig de la Gavarra","height":1057,"region":"Alt Empordà","essencial":false,"latitude":"42.3607261639","longitude":"2.69684853147"},{"id":"puig-de-la-grava","url":"https://www.feec.cat/activitats/100-cims/cim/puig-de-la-grava/","image":"https://www.feec.cat/wp-content/uploads/2019/04/Puig-de-la-Grava.jpg","name":"Puig de la Grava","height":2671,"region":"Cerdanya Nord","essencial":false,"latitude":"42.6048517182","longitude":"1.93347627782"},{"id":"puig-de-la-mola","url":"https://www.feec.cat/activitats/100-cims/cim/puig-de-la-mola/","image":"https://www.feec.cat/wp-content/uploads/2019/04/Puig-de-la-Mola.jpg","name":"Puig de la Mola","height":534,"region":"Alt Penedès, Baix Llobregat, Garraf","essencial":false,"latitude":"41.3193219621","longitude":"1.84785320744"},{"id":"puig-de-la-pelada","url":"https://www.feec.cat/activitats/100-cims/cim/puig-de-la-pelada/","image":"https://www.feec.cat/wp-content/uploads/2022/06/204-pic-de-la-pelada_optimized-scaled.jpg","name":"Puig de la Pelada","height":2370,"region":"Conflent","essencial":false,"latitude":"42.621619","longitude":"2.194762"},{"id":"puig-de-les-agudes","url":"https://www.feec.cat/activitats/100-cims/cim/puig-de-les-agudes/","image":"https://www.feec.cat/wp-content/uploads/2019/04/Puig-de-les-Agudes_2-scaled.jpg","name":"Puig de les Agudes","height":1976,"region":"Ripollès","essencial":false,"latitude":"42.3633808585","longitude":"2.31874391776"},{"id":"puig-de-les-aligues","url":"https://www.feec.cat/activitats/100-cims/cim/puig-de-les-aligues/","image":"https://www.feec.cat/wp-content/uploads/2019/04/Puig-de-les-Àligues-scaled.jpg","name":"Puig de les Àligues","height":1344,"region":"Osona","essencial":false,"latitude":"42.1090151344","longitude":"2.34931774822"},{"id":"puig-de-les-bruixes","url":"https://www.feec.cat/activitats/100-cims/cim/puig-de-les-bruixes/","image":"https://www.feec.cat/wp-content/uploads/2019/04/Puig-de-les-Bruixes_3-scaled.jpg","name":"Puig de les Bruixes","height":1391,"region":"Alt Empordà, Garrotxa","essencial":false,"latitude":"42.3244930629","longitude":"2.55549817266"},{"id":"puig-de-les-cols","url":"https://www.feec.cat/activitats/100-cims/cim/puig-de-les-cols/","image":"https://www.feec.cat/wp-content/uploads/2022/06/puig-de-les-cols_optimized.jpg","name":"Puig de les Cols","height":417,"region":"Baix Empordà","essencial":false,"latitude":"41.780436","longitude":"2.975677"},{"id":"puig-de-les-morreres","url":"https://www.feec.cat/activitats/100-cims/cim/puig-de-les-morreres/","image":"https://www.feec.cat/wp-content/uploads/2019/04/Puig-de-les-Morreres.jpg","name":"Puig de les Morreres","height":2211,"region":"Solsonès","essencial":true,"latitude":"42.1509179033","longitude":"1.5394423235"},{"id":"puig-de-les-tres-esteles","url":"https://www.feec.cat/activitats/100-cims/cim/puig-de-les-tres-esteles/","image":"https://www.feec.cat/wp-content/uploads/2019/04/Puig-de-les-Tres-Esteles_3-scaled.jpg","name":"Puig de les Tres Esteles","height":2099,"region":"Conflent","essencial":false,"latitude":"42.508771955","longitude":"2.32321679045"},{"id":"puig-de-milla","url":"https://www.feec.cat/activitats/100-cims/cim/puig-de-milla/","image":"https://www.feec.cat/wp-content/uploads/2019/04/Puig-de-Millà-scaled.jpg","name":"Puig de Millà","height":1025,"region":"Noguera","essencial":false,"latitude":"42.001724505","longitude":"0.672191437353"},{"id":"puig-de-sant-antoni","url":"https://www.feec.cat/activitats/100-cims/cim/puig-de-sant-antoni/","image":"https://www.feec.cat/wp-content/uploads/2019/04/Puig-de-Sant-Antoni.jpg","name":"Puig de Sant Antoni","height":409,"region":"Baix Penedès","essencial":false,"latitude":"41.2437100625","longitude":"1.47433479322"},{"id":"puig-de-sant-cristau","url":"https://www.feec.cat/activitats/100-cims/cim/puig-de-sant-cristau/","image":"https://www.feec.cat/wp-content/uploads/2019/04/Puig-de-Sant-Cristau_2.jpg","name":"Puig de Sant Cristau","height":1015,"region":"Rosselló, Vallespir","essencial":false,"latitude":"42.4920219845","longitude":"2.89069878728"},{"id":"puig-de-sant-miquel","url":"https://www.feec.cat/activitats/100-cims/cim/puig-de-sant-miquel/","image":"https://www.feec.cat/wp-content/uploads/2019/04/Puig-de-Sant-Miquel.jpg","name":"Puig de Sant Miquel","height":733,"region":"Anoia","essencial":true,"latitude":"41.6372385192","longitude":"1.58098481729"},{"id":"puig-de-tretzevents","url":"https://www.feec.cat/activitats/100-cims/cim/puig-de-tretzevents/","image":"https://www.feec.cat/wp-content/uploads/2019/04/Puig-de-Tretzevents-scaled.jpg","name":"Puig de Tretzevents","height":2731,"region":"Conflent, Vallespir","essencial":true,"latitude":"42.492101894","longitude":"2.4683643295"},{"id":"puig-del-far","url":"https://www.feec.cat/activitats/100-cims/cim/puig-del-far/","image":"https://www.feec.cat/wp-content/uploads/2022/06/99-puig-del-far_optimized-scaled.jpg","name":"Puig del Far","height":832,"region":"Osona","essencial":false,"latitude":"41.959633","longitude":"2.376163"},{"id":"puig-del-pam","url":"https://www.feec.cat/activitats/100-cims/cim/puig-del-pam/","image":"https://www.feec.cat/wp-content/uploads/2022/06/Puig-del-Pam.jpg","name":"Puig del Pam","height":2470,"region":"Capcir","essencial":false,"latitude":"42.604820","longitude":"2.031042"},{"id":"puig-dels-bufadors","url":"https://www.feec.cat/activitats/100-cims/cim/puig-dels-bufadors/","image":"https://www.feec.cat/wp-content/uploads/2022/06/3-puig-bufadors_optimized-scaled.jpg","name":"Puig dels Bufadors","height":432,"region":"Alt Empordà","essencial":false,"latitude":"42.301067","longitude":"3.248749"},{"id":"puig-dels-pruners","url":"https://www.feec.cat/activitats/100-cims/cim/puig-dels-pruners/","image":"https://www.feec.cat/wp-content/uploads/2022/06/09-Puig-dels-Pruners-rotated.jpg","name":"Puig dels Pruners","height":832,"region":"Alt Empordà, Vallespir","essencial":false,"latitude":"42.428005","longitude":"2.802938"},{"id":"puig-estela","url":"https://www.feec.cat/activitats/100-cims/cim/puig-estela/","image":"https://www.feec.cat/wp-content/uploads/2019/04/Puig-Estela_2-scaled.jpg","name":"Puig Estela","height":2013,"region":"Ripollès","essencial":false,"latitude":"42.2843006575","longitude":"2.2539920533"},{"id":"puig-falco","url":"https://www.feec.cat/activitats/100-cims/cim/puig-falco/","image":"https://www.feec.cat/wp-content/uploads/2022/06/04-Puig-Falco-rotated.jpg","name":"Puig Falcó","height":1097,"region":"Alt Empordà","essencial":false,"latitude":"42.375290","longitude":"2.667094"},{"id":"puig-francas","url":"https://www.feec.cat/activitats/100-cims/cim/puig-francas/","image":"https://www.feec.cat/wp-content/uploads/2022/06/IMG_20221120_085519.jpg","name":"Puig Francàs","height":551,"region":"Baix Penedès","essencial":false,"latitude":"41.301168","longitude":"1.458887"},{"id":"puig-gros","url":"https://www.feec.cat/activitats/100-cims/cim/puig-gros/","image":"https://www.feec.cat/wp-content/uploads/2019/04/Puig-Gros.jpg","name":"Puig Gros","height":325,"region":"Baix Empordà","essencial":false,"latitude":"41.7750249885","longitude":"2.99796651839"},{"id":"puig-madrona","url":"https://www.feec.cat/activitats/100-cims/cim/puig-madrona/","image":"https://www.feec.cat/wp-content/uploads/2019/04/Puig-Madrona-scaled.jpg","name":"Puig Madrona","height":341,"region":"Baix Llobregat, Vallès Occidental","essencial":false,"latitude":"41.4512983754","longitude":"2.02409766978"},{"id":"puig-neulos","url":"https://www.feec.cat/activitats/100-cims/cim/puig-neulos/","image":"https://www.feec.cat/wp-content/uploads/2019/04/Puig-Neulos-scaled.jpg","name":"Puig Neulós","height":1257,"region":"Alt Empordà, Rosselló","essencial":true,"latitude":"42.482101374","longitude":"2.94711007326"},{"id":"puig-occidental-de-coll-roig","url":"https://www.feec.cat/activitats/100-cims/cim/puig-occidental-de-coll-roig/","image":"https://www.feec.cat/wp-content/uploads/2022/06/200-Puig-Occidental-de-Coll-Roig.jpg","name":"Puig Occidental de Coll Roig","height":2833,"region":"Cerdanya Nord","essencial":false,"latitude":"42.549348","longitude":"1.916784"},{"id":"puig-ou","url":"https://www.feec.cat/activitats/100-cims/cim/puig-ou/","image":"https://www.feec.cat/wp-content/uploads/2019/04/Puig-Ou.jpg","name":"Puig Ou","height":1300,"region":"Garrotxa, Ripollès","essencial":true,"latitude":"42.2841286008","longitude":"2.42776271465"},{"id":"puig-pedros-de-lanos","url":"https://www.feec.cat/activitats/100-cims/cim/puig-pedros-de-lanos/","image":"https://www.feec.cat/wp-content/uploads/2019/04/Puig-Pedros-de-Lanos.jpg","name":"Puig Pedrós de Lanós","height":2842,"region":"Cerdanya Nord","essencial":false,"latitude":"42.588501","longitude":"1.873090"},{"id":"puig-pelat","url":"https://www.feec.cat/activitats/100-cims/cim/puig-pelat/","image":"https://www.feec.cat/wp-content/uploads/2019/04/Puig-Pelat_2-1-scaled.jpg","name":"Puig Pelat","height":1076,"region":"Baix Camp","essencial":false,"latitude":"41.2663110481","longitude":"1.05450380794"},{"id":"puig-peric","url":"https://www.feec.cat/activitats/100-cims/cim/puig-peric/","image":"https://www.feec.cat/wp-content/uploads/2019/04/Puig-Peric_2-scaled.jpg","name":"Puig Peric","height":2810,"region":"Capcir, Cerdanya Nord","essencial":true,"latitude":"42.6136270709","longitude":"1.98444924692"},{"id":"puig-segalar","url":"https://www.feec.cat/activitats/100-cims/cim/puig-segalar/","image":"https://www.feec.cat/wp-content/uploads/2022/06/segalar.jpg","name":"Puig Segalar","height":175,"region":"Alt Empordà, Baix Empordà","essencial":false,"latitude":"42.112440","longitude":"3.049930"},{"id":"puig-sobira","url":"https://www.feec.cat/activitats/100-cims/cim/puig-sobira/","image":"https://www.feec.cat/wp-content/uploads/2019/04/Puig-Sobira.jpg","name":"Puig Sobirà","height":1938,"region":"Solsonès","essencial":false,"latitude":"42.1340410525","longitude":"1.49765053388"},{"id":"puig-vicenc","url":"https://www.feec.cat/activitats/100-cims/cim/puig-vicenc/","image":"https://www.feec.cat/wp-content/uploads/2019/07/65-Puig-Vicenc.jpg","name":"Puig Vicenç","height":468,"region":"Baix Llobregat","essencial":false,"latitude":"41.367809","longitude":"1.954040"},